~Version ---------------------------------------------------
VERS.   2.0 : CWLS log ASCII Standard -VERSION 2.0
WRAP.    NO : One line per depth step
DLM . SPACE : Column Data Section Delimiter
~Well ------------------------------------------------------
STRT.M 1000.00000 : START DEPTH
STOP.M 1500.00000 : STOP DEPTH
STEP.M    1.00200 : STEP
NULL.     -999.25 : NULL VALUE
COMP.             : COMPANY
WELL.    WELL-008 : WELL
FLD .             : FIELD
LOC .             : LOCATION
PROV.             : PROVINCE
CNTY.             : COUNTY
STAT.             : STATE
CTRY.             : COUNTRY
SRVC.             : SERVICE COMPANY
DATE.             : DATE
UWI .             : UNIQUE WELL ID
API .             : API NUMBER
~Curve Information -----------------------------------------
DEPT.M     : 
G.R..API   : Gamma Ray
NPHI.V/V   : Neutron Porosity
RHOB.G/C3  : Bulk Density
~Params ----------------------------------------------------
~Other -----------------------------------------------------
~ASCII -----------------------------------------------------
# ...
 1356.71343   86.16701    0.24966    2.30743
 1357.71543  100.08989    0.23655    2.35744
 1358.71743   78.61348    0.22582    2.37978
 1359.71944   91.97390    0.29897    2.25585
 1360.72144   70.50159    0.26619    2.33502
 1361.72345   73.07606    0.25855    2.34987
 1362.72545   77.90374    0.25623    2.33600
 1363.72745   71.04872    0.23900    2.34913
 1364.72946   93.01415    0.15176    2.50077
 1365.73146   52.30698    0.25570    2.33068
 1366.73347   59.54416    0.28537    2.31433
 1367.73547   81.21125    0.24170    2.37093
 1368.73747   84.52817    0.33192    2.23269
 1369.73948   80.07789    0.23213    2.36485
 1370.74148   88.81394    0.26454    2.33666
 1371.74349   71.88389    0.26908    2.35772
 1372.74549   71.39297    0.20101    2.39699
 1373.74749   82.82517    0.17818    2.44811
 1374.74950   57.87023    0.32451    2.25103
 1375.75150   91.99263    0.19299    2.41080
 1376.75351   70.15649    0.23110    2.34495
 1377.75551   76.15061    0.15784    2.47776
 1378.75752   39.56357    0.16242    2.46112
 1379.75952   49.11660    0.25489    2.33765
 1380.76152   84.79209    0.27736    2.30221
 1381.76353   71.69440    0.24156    2.36058
 1382.76553   74.54472    0.23575    2.40045
 1383.76754   82.47505    0.29893    2.32172
 1384.76954   71.01443    0.24211    2.34980
 1385.77154   62.96948    0.32910    2.24539
 1386.77355   52.60126    0.28051    2.33485
 1387.77555   75.70858    0.24446    2.33671
 1388.77756   81.88224    0.20941    2.40149
 1389.77956   94.69363    0.23316    2.42213
 1390.78156   99.13722    0.25924    2.37374
 1391.78357   74.30907    0.27087    2.33601
 1392.78557   48.78471    0.15923    2.49178
 1393.78758   84.83480    0.18948    2.45091
 1394.78958   63.95040    0.25921    2.36092
 1395.79158   67.55685    0.26384    2.33987
 1396.79359   79.90709    0.22542    2.37082
 1397.79559   79.83212    0.18819    2.43691
 1398.79760   42.05235    0.28592    2.31749
 1399.79960   61.83492    0.27767    2.30293
 1400.80160   96.41155    0.24765    2.34758
 1401.80361   61.11668    0.20867    2.38416
 1402.80561   44.34066    0.22720    2.40500
 1403.80762   48.21359    0.27006    2.30557
 1404.80962   60.53621    0.28179    2.32451
 1405.81162   50.35234    0.19589    2.41265
 1406.81363   70.44513    0.25054    2.32688
 1407.81563   73.96199    0.18459    2.40406
 1408.81764   53.13991    0.26329    2.34332
 1409.81964   56.40538    0.23210    2.35577
 1410.82164   80.46653    0.29136    2.28892
 1411.82365   60.24665    0.26330    2.36118
 1412.82565   69.07203    0.13436    2.49403
 1413.82766   63.84824    0.25218    2.33002
 1414.82966   80.15555    0.20974    2.40612
 1415.83166   62.82182    0.28230    2.31032
 1416.83367   76.24503    0.31270    2.30734
 1417.83567   54.46478    0.24115    2.32845
 1418.83768   66.49857    0.22260    2.40798
 1419.83968   51.72928    0.27371    2.29585
 1420.84168   70.32061    0.24872    2.35703
 1421.84369   76.65775    0.25872    2.34712
 1422.84569   60.82733    0.24218    2.34558
 1423.84770   58.75700    0.22849    2.36054
 1424.84970   30.83503    0.31657    2.26130
 1425.85170   68.26957    0.21028    2.40288
 1426.85371   44.05977    0.20710    2.40324
 1427.85571   36.35346    0.21327    2.41376
 1428.85772   55.73906    0.34061    2.24254
 1429.85972   45.84684    0.24365    2.32703
 1430.86172   70.92291    0.18531    2.43930
 1431.86373   28.94310    0.28302    2.33513
 1432.86573   18.96962    0.18713    2.43119
 1433.86774   44.24746    0.26289    2.33680
 1434.86974   71.75092    0.24776    2.37339
 1435.87174   42.01345    0.29314    2.29297
 1436.87375   59.92751    0.20602    2.36355
 1437.87575   42.49633    0.22266    2.35644
 1438.87776   73.44760    0.32511    2.29253
 1439.87976   38.98265    0.31759    2.28580
 1440.88176   51.62537    0.29162    2.29927
 1441.88377   45.50238    0.29921    2.27959
 1442.88577   46.57087    0.25907    2.35316
 1443.88778   51.49133    0.21926    2.36526
 1444.88978   57.58688    0.29929    2.28861
 1445.89178   60.97376    0.24339    2.35312
 1446.89379   45.90676    0.27580    2.33043
 1447.89579   33.44453    0.25839    2.36761
 1448.89780   37.07608    0.27458    2.31226
 1449.89980   49.75098    0.29198    2.26545
 1450.90180   52.25435    0.18142    2.43760
 1451.90381   60.87923    0.26918    2.31095
 1452.90581   62.53592    0.30578    2.26278
 1453.90782   25.80907    0.25311    2.33339
 1454.90982   58.21487    0.21202    2.36273
 1455.91182   44.08652    0.26036    2.30705
 1456.91383   64.49261    0.20193    2.41413
 1457.91583   64.58197    0.27831    2.27572
 1458.91784   27.83399    0.29410    2.30790
 1459.91984   33.45070    0.20058    2.43727
 1460.92184   61.49884    0.24445    2.36853
 1461.92385   50.91765    0.30641    2.27517
 1462.92585   25.79123    0.25297    2.35541
 1463.92786   36.24141    0.15396    2.46493
 1464.92986   22.45650    0.36121    2.27743
 1465.93186   49.35502    0.22673    2.38798
 1466.93387   42.16300    0.29342    2.31476
 1467.93587   45.35084    0.20069    2.44114
 1468.93788   37.00276    0.27974    2.31027
 1469.93988   33.57391    0.21394    2.40340
 1470.94188   42.04311    0.13557    2.51650
 1471.94389   27.22827    0.30044    2.30001
 1472.94589   34.51045    0.24724    2.34845
 1473.94790   24.35943    0.26226    2.30786
 1474.94990   31.16331    0.24789    2.34341
 1475.95190   -0.63062    0.32427    2.30151
 1476.95391   54.09219    0.26035    2.34769
 1477.95591   45.00207    0.26117    2.30023
 1478.95792   25.38451    0.23211    2.36392
 1479.95992   34.54866    0.30319    2.28959
 1480.96192   60.50944    0.24167    2.37459
 1481.96393   52.51256    0.23781    2.33559
 1482.96593   56.85789    0.23434    2.36585
 1483.96794   43.65854    0.20267    2.39846
 1484.96994   39.80503    0.26874    2.30318
 1485.97194   43.53118    0.19968    2.40930
 1486.97395   35.57403    0.30981    2.28365
 1487.97595   31.49321    0.22755    2.33401
 1488.97796   26.18261    0.25056    2.34908
 1489.97996   53.95647    0.17866    2.41937
 1490.98196   42.94699    0.18147    2.40613
 1491.98397   59.07056    0.25331    2.33769
 1492.98597   28.27775    0.24456    2.34878
 1493.98798   41.48739    0.19399    2.40593
 1494.98998   43.26689    0.30430    2.24420
 1495.99198   38.07704    0.18641    2.41784
 1496.99399   35.90316    0.21414    2.36069
 1497.99599   48.38333    0.18397    2.43831
 1498.99800   30.75154    0.18545    2.43524
 1500.00000   47.80056    0.22919    2.39679
