~Version ---------------------------------------------------
VERS.   2.0 : CWLS log ASCII Standard -VERSION 2.0
WRAP.    NO : One line per depth step
DLM . SPACE : Column Data Section Delimiter
~Well ------------------------------------------------------
STRT.M 1000.00000 : START DEPTH
STOP.M 1500.00000 : STOP DEPTH
STEP.M    1.00200 : STEP
NULL.     -999.25 : NULL VALUE
COMP.             : COMPANY
WELL.    WELL-004 : WELL
FLD .             : FIELD
LOC .             : LOCATION
PROV.             : PROVINCE
CNTY.             : COUNTY
STAT.             : STATE
CTRY.             : COUNTRY
SRVC.             : SERVICE COMPANY
DATE.             : DATE
UWI .             : UNIQUE WELL ID
API .             : API NUMBER
~Curve Information -----------------------------------------
DEPT.M     : 
GR  .API   : Gamma Ray
NPHI.V/V   : Neutron Porosity
RHOB.G/C3  : Bulk Density
~Params ----------------------------------------------------
~Other -----------------------------------------------------
~ASCII -----------------------------------------------------
 1000.00000  108.28791    0.26418    2.31259
 1001.00200   93.42895    0.18972    2.45615
 1002.00401   57.37555    0.16016    2.45572
 1003.00601   74.17584    0.31697    2.27727
 1004.00802   49.76834    0.24409    2.33461
 1005.01002   67.13678    0.22425    2.36818
 1006.01202   65.01946    0.32538    2.23891
 1007.01403   70.28884    0.22137    2.36939
 1008.01603   79.15219    0.24878    2.31826
 1009.01804   95.96416    0.21473    2.40076
 1010.02004   86.05978    0.21059    2.36425
 1011.02204   81.94289    0.27595    2.29679
 1012.02405   65.87492    0.24549    2.33168
 1013.02605   59.99370    0.21858    2.34848
 1014.02806   72.31269    0.29955    2.31016
 1015.03006   69.65470    0.30653    2.30713
 1016.03206  109.54801    0.23077    2.34303
 1017.03407  123.66879    0.30174    2.28325
 1018.03607   69.42831    0.25812    2.37417
 1019.03808   56.06757    0.30228    2.30651
 1020.04008   99.09249    0.31023    2.30656
 1021.04208   98.32174    0.24520    2.35450
 1022.04409   86.91776    0.26046    2.32538
 1023.04609   90.08408    0.27949    2.28868
 1024.04810   76.45919    0.25562    2.36510
 1025.05010   84.65123    0.26159    2.35316
 1026.05210   92.38076    0.20998    2.39762
 1027.05411   99.11793    0.19944    2.44174
 1028.05611   46.17887    0.28455    2.32091
 1029.05812  103.07430    0.31183    2.26133
 1030.06012   71.41037    0.27091    2.36260
 1031.06212  109.41697    0.23609    2.35679
 1032.06413   95.23441    0.22722    2.36812
 1033.06613   59.71645    0.21082    2.41681
 1034.06814   98.96516    0.21232    2.39182
 1035.07014   68.91001    0.19992    2.41559
 1036.07214   81.38603    0.23472    2.34376
 1037.07415   96.23306    0.23997    2.34251
 1038.07615  100.84995    0.28690    2.28870
 1039.07816   90.26850    0.30994    2.27594
 1040.08016   82.50539    0.27754    2.35503
 1041.08216  100.58351    0.21855    2.42213
 1042.08417  111.32018    0.27877    2.31395
 1043.08617   69.26071    0.26155    2.34851
 1044.08818   72.69943    0.23638    2.35644
 1045.09018   71.92309    0.25538    2.34711
 1046.09218   71.45460    0.18749    2.42483
 1047.09419  102.37316    0.30896    2.27126
 1048.09619  115.39494    0.25623    2.37082
 1049.09820   82.09506    0.17987    2.46106
 1050.10020 -999.25000    0.15242    2.46086
 1051.10220 -999.25000    0.18213    2.42024
 1052.10421 -999.25000    0.29293    2.29626
 1053.10621 -999.25000    0.20591    2.39303
 1054.10822 -999.25000    0.23754    2.37736
 1055.11022 -999.25000    0.26057    2.33363
 1056.11222 -999.25000    0.17950    2.42944
 1057.11423 -999.25000    0.28372    2.31108
 1058.11623 -999.25000    0.16066    2.42475
 1059.11824 -999.25000    0.29182    2.28112
 1060.12024 -999.25000    0.25552    2.35727
 1061.12224 -999.25000    0.23150    2.39941
 1062.12425 -999.25000    0.29680    2.28435
 1063.12625 -999.25000    0.34607    2.23733
 1064.12826 -999.25000    0.21140    2.39055
 1065.13026 -999.25000    0.22297    2.41742
 1066.13226 -999.25000    0.25719    2.36019
 1067.13427 -999.25000    0.31518    2.26595
 1068.13627 -999.25000    0.25624    2.34135
 1069.13828 -999.25000    0.21379    2.39827
 1070.14028 -999.25000    0.22094    2.37955
 1071.14228 -999.25000    0.25746    2.33228
 1072.14429 -999.25000    0.27660    2.32735
 1073.14629 -999.25000    0.18897    2.42932
 1074.14830 -999.25000    0.25481    2.33921
 1075.15030 -999.25000    0.24786    2.33631
 1076.15230 -999.25000    0.29983    2.29055
 1077.15431 -999.25000    0.23989    2.36662
 1078.15631 -999.25000    0.25868    2.33336
 1079.15832 -999.25000    0.30010    2.27637
 1080.16032 -999.25000    0.22686    2.38314
 1081.16232 -999.25000    0.26294    2.31467
 1082.16433 -999.25000    0.22073    2.38780
 1083.16633 -999.25000    0.25687    2.33317
 1084.16834 -999.25000    0.27516    2.30782
 1085.17034 -999.25000    0.24052    2.39909
 1086.17234 -999.25000    0.18582    2.45781
 1087.17435 -999.25000    0.26378    2.30694
 1088.17635 -999.25000    0.22191    2.39180
 1089.17836 -999.25000    0.26665    2.29446
 1090.18036 -999.25000    0.30319    2.29290
 1091.18236 -999.25000    0.18461    2.47583
 1092.18437 -999.25000    0.17768    2.44320
 1093.18637 -999.25000    0.27406    2.30766
 1094.18838 -999.25000    0.23594    2.36878
 1095.19038 -999.25000    0.24995    2.32016
 1096.19238 -999.25000    0.21486    2.36446
 1097.19439 -999.25000    0.30799    2.29524
 1098.19639 -999.25000    0.22599    2.35994
 1099.19840 -999.25000    0.28939    2.31255
 1100.20040   53.38843    0.30952    2.30138
 1101.20240   53.42212    0.15197    2.50241
 1102.20441   73.90271    0.34374    2.24921
 1103.20641   75.62652    0.19286    2.39871
 1104.20842   56.31095    0.26265    2.33460
 1105.21042   96.26066    0.22611    2.36369
 1106.21242   61.29598    0.30542    2.29984
 1107.21443   54.52084    0.21494    2.39037
 1108.21643   52.67716    0.21235    2.42193
 1109.21844   72.97805    0.22369    2.38531
 1110.22044   76.60486    0.30907    2.25947
 1111.22244   41.18195    0.18164    2.40151
 1112.22445   39.79592    0.27476    2.31809
 1113.22645   37.37110    0.28382    2.30458
 1114.22846   57.16559    0.19933    2.41641
 1115.23046   29.94123    0.24026    2.35375
 1116.23246   48.39319    0.25214    2.35742
 1117.23447   63.43326    0.25017    2.29854
 1118.23647   15.68109    0.30263    2.27598
 1119.23848   54.69047    0.28673    2.31514
 1120.24048   38.18597    0.26792    2.32403
 1121.24248   54.05980    0.25422    2.36052
 1122.24449   83.93409    0.24961    2.38366
 1123.24649   52.85943    0.29091    2.28882
 1124.24850   51.45216    0.20273    2.40694
 1125.25050   60.77691    0.16646    2.45110
 1126.25251   50.14728    0.32534    2.25692
 1127.25451   53.65003    0.26829    2.30783
 1128.25651   40.73798    0.20377    2.38133
 1129.25852   50.45817    0.21729    2.39646
 1130.26052   55.72431    0.15180    2.46324
 1131.26253   60.64221    0.30028    2.33185
 1132.26453   18.87677    0.23754    2.35329
 1133.26653   55.47612    0.28859    2.30778
 1134.26854   32.59835    0.28068    2.32155
 1135.27054   47.04399    0.29002    2.33117
 1136.27255   39.51119    0.28274    2.30396
 1137.27455   62.69091    0.26610    2.33372
 1138.27655   29.01528    0.22793    2.38865
 1139.27856   42.31847    0.19142    2.43397
 1140.28056   41.89429    0.26692    2.31859
 1141.28257   50.84485    0.23908    2.36497
 1142.28457   35.27614    0.25181    2.37301
 1143.28657   63.76059    0.36851    2.23359
 1144.28858   35.36042    0.22690    2.42241
 1145.29058   57.69928    0.28332    2.32906
 1146.29259   50.52367    0.20899    2.37480
 1147.29459   39.17259    0.25255    2.32343
 1148.29659   41.48245    0.18500    2.43105
 1149.29860   35.11726    0.21547    2.40108
 1150.30060   32.21644    0.25068    2.31453
 1151.30261   48.44841    0.20603    2.42726
 1152.30461   28.11865    0.23880    2.31061
 1153.30661   52.40522    0.26006    2.29961
 1154.30862   39.91524    0.24525    2.37693
 1155.31062   17.34257    0.26036    2.33678
 1156.31263   34.75296    0.26878    2.32577
 1157.31463   22.83164    0.21881    2.37557
 1158.31663   51.83925    0.25746    2.32149
 1159.31864   42.55611    0.25939    2.34445
 1160.32064   12.83988    0.23431    2.36545
 1161.32265   22.61613    0.20870    2.39526
 1162.32465   65.52909    0.20705    2.40626
 1163.32665   28.99991    0.28055    2.31585
 1164.32866   65.57715    0.24401    2.38266
 1165.33066   50.12751    0.20095    2.40339
 1166.33267   41.82654    0.31428    2.27351
 1167.33467   37.28376    0.29654    2.27786
 1168.33667   24.50691    0.26294    2.35033
 1169.33868   61.03178    0.27797    2.32762
 1170.34068   63.44280    0.23709    2.34120
 1171.34269   39.79655    0.17371    2.44703
 1172.34469   21.21321    0.31140    2.26682
 1173.34669   25.90676    0.25788    2.32532
 1174.34870   26.78064    0.26059    2.30041
 1175.35070   19.59984    0.24369    2.34407
 1176.35271   33.75410    0.22771    2.40751
 1177.35471   26.01408    0.19175    2.40303
