~Version ---------------------------------------------------
VERS.   2.0 : CWLS log ASCII Standard -VERSION 2.0
WRAP.    NO : One line per depth step
DLM . SPACE : Column Data Section Delimiter
~Well ------------------------------------------------------
STRT.M 1000.00000 : START DEPTH
STOP.M 1500.00000 : STOP DEPTH
STEP.M    1.00200 : STEP
NULL.     -999.25 : NULL VALUE
COMP.             : COMPANY
WELL.    WELL-002 : WELL
FLD .             : FIELD
LOC .             : LOCATION
PROV.             : PROVINCE
CNTY.             : COUNTY
STAT.             : STATE
CTRY.             : COUNTRY
SRVC.             : SERVICE COMPANY
DATE.             : DATE
UWI .             : UNIQUE WELL ID
API .             : API NUMBER
~Curve Information -----------------------------------------
DEPT .M     : 
GAMMA.API   : Gamma Ray
NEUT .V/V   : Neutron Porosity
DENS .G/C3  : Bulk Density
~Params ----------------------------------------------------
~Other -----------------------------------------------------
~ASCII -----------------------------------------------------
# ...
 1356.71343   71.22489    0.29560    2.30703
 1357.71543   96.98532    0.25394    2.35194
 1358.71743   85.90282    0.31073    2.28700
 1359.71944   89.21831    0.21212    2.41289
 1360.72144   66.24941    0.25106    2.37156
 1361.72345  116.37856    0.25072    2.34920
 1362.72545   51.35870    0.27444    2.32550
 1363.72745   87.61019    0.34048    2.24570
 1364.72946   96.25043    0.34564    2.23123
 1365.73146   83.93496    0.31920    2.29780
 1366.73347   76.72918    0.31690    2.29647
 1367.73547  101.00531    0.22872    2.36675
 1368.73747   51.58732    0.27115    2.27247
 1369.73948   62.93142    0.25287    2.37889
 1370.74148   73.74524    0.27747    2.30523
 1371.74349   89.25989    0.27182    2.32102
 1372.74549   91.99350    0.25937    2.31332
 1373.74749   75.03382    0.20108    2.38813
 1374.74950   66.81091    0.30858    2.28544
 1375.75150   63.02327    0.13164    2.46458
 1376.75351   60.16703    0.30155    2.32027
 1377.75551   59.03407    0.22143    2.39291
 1378.75752   70.68878    0.29023    2.30007
 1379.75952   60.84809    0.34937    2.23394
 1380.76152   75.88789    0.24497    2.38274
 1381.76353   76.94411    0.21125    2.36047
 1382.76553   58.69546    0.27809    2.32167
 1383.76754   84.42842    0.13917    2.48719
 1384.76954   54.26975    0.33364    2.27249
 1385.77154   58.53779    0.34982    2.24568
 1386.77355   58.32230    0.29144    2.29703
 1387.77555   85.17443    0.27307    2.33243
 1388.77756   81.16228    0.32777    2.25006
 1389.77956   72.09212    0.12218    2.50839
 1390.78156   68.87107    0.21674    2.37037
 1391.78357   61.11468    0.21160    2.41173
 1392.78557   45.26163    0.23263    2.35676
 1393.78758   61.33917    0.27366    2.32464
 1394.78958   77.26362    0.33412    2.24615
 1395.79158   69.17050    0.27072    2.32810
 1396.79359   63.37141    0.23713    2.36455
 1397.79559   69.92734    0.27779    2.35406
 1398.79760   68.93457    0.26545    2.32397
 1399.79960   71.31235    0.18887    2.40338
 1400.80160   77.97238    0.28110    2.29671
 1401.80361   59.42406    0.28004    2.31999
 1402.80561   67.31782    0.28014    2.32252
 1403.80762   68.65447    0.23746    2.37130
 1404.80962   79.08954    0.10539    2.50481
 1405.81162   68.16388    0.19610    2.35343
 1406.81363   67.68008    0.20670    2.41208
 1407.81563   62.71994    0.19288    2.42985
 1408.81764   69.71276    0.28381    2.29607
 1409.81964   82.05546    0.25993    2.35734
 1410.82164   71.39653    0.16604    2.49619
 1411.82365   81.23712    0.29109    2.27641
 1412.82565   60.16377    0.25625    2.31072
 1413.82766   60.43328    0.22985    2.39320
 1414.82966   56.46179    0.14036    2.47096
 1415.83166   59.93599    0.28947    2.30071
 1416.83367   49.29960    0.15870    2.47325
 1417.83567   50.10793    0.25323    2.33343
 1418.83768   72.30251    0.30557    2.28190
 1419.83968   97.74741    0.23035    2.37029
 1420.84168   86.65136    0.27494    2.30437
 1421.84369   54.35567    0.21792    2.38420
 1422.84569   60.33512    0.31147    2.26887
 1423.84770   42.15206    0.28781    2.34358
 1424.84970   46.54055    0.22564    2.38344
 1425.85170   49.23776    0.21829    2.41684
 1426.85371  101.33935    0.19932    2.39587
 1427.85571   44.20025    0.23403    2.37297
 1428.85772   38.60122    0.24432    2.37580
 1429.85972   56.96453    0.27368    2.34626
 1430.86172   55.59071    0.19004    2.38683
 1431.86373   63.57002    0.23639    2.33638
 1432.86573   37.69938    0.27273    2.32721
 1433.86774   59.13279    0.29874    2.28042
 1434.86974   58.40622    0.22012    2.36067
 1435.87174   31.04299    0.28079    2.29143
 1436.87375   66.46857    0.26274    2.34039
 1437.87575   41.11700    0.30918    2.27636
 1438.87776   45.97613    0.18843    2.41249
 1439.87976   43.51404    0.17514    2.43851
 1440.88176   77.66257    0.24788    2.37086
 1441.88377   49.85824    0.25001    2.34473
 1442.88577   51.56285    0.17896    2.43274
 1443.88778   38.39987    0.22441    2.39483
 1444.88978   38.37415    0.21939    2.37015
 1445.89178   29.90487    0.24238    2.32490
 1446.89379   44.99014    0.23142    2.40511
 1447.89579   40.46329    0.22746    2.37390
 1448.89780   47.82510    0.20470    2.42358
 1449.89980   31.68446    0.20941    2.39671
 1450.90180   62.82234    0.22570    2.36688
 1451.90381   35.97056    0.19999    2.41169
 1452.90581   40.35404    0.37809    2.21524
 1453.90782   45.62953    0.30791    2.32111
 1454.90982   37.52844    0.29280    2.27408
 1455.91182   27.81360    0.31495    2.30084
 1456.91383   63.39162    0.23576    2.35681
 1457.91583   43.59163    0.25232    2.35840
 1458.91784   68.39216    0.18210    2.43447
 1459.91984   38.69406    0.24967    2.33799
 1460.92184    9.17469    0.21952    2.33868
 1461.92385   31.23369    0.23967    2.38190
 1462.92585   40.04725    0.26304    2.35651
 1463.92786   62.15409    0.25056    2.35842
 1464.92986   52.68063    0.24381    2.30381
 1465.93186   33.13838    0.24941    2.37102
 1466.93387   43.74768    0.26837    2.37741
 1467.93587   55.29395    0.18883    2.45303
 1468.93788   51.78413    0.27034    2.30029
 1469.93988   35.71324    0.32562    2.24667
 1470.94188   60.78982    0.19932    2.40307
 1471.94389   44.61266    0.21396    2.42059
 1472.94589   55.37443    0.28392    2.30887
 1473.94790   42.04319    0.31174    2.25551
 1474.94990   59.01413    0.27826    2.31881
 1475.95190   57.16892    0.25452    2.36596
 1476.95391   32.45463    0.16849    2.48764
 1477.95591   17.78031    0.30687    2.26014
 1478.95792   44.55483    0.22823    2.37238
 1479.95992   31.88843    0.28354    2.29851
 1480.96192   15.49456    0.28400    2.33351
 1481.96393   46.23412    0.30420    2.26946
 1482.96593   -2.63779    0.19032    2.39161
 1483.96794   23.87996    0.22646    2.39484
 1484.96994   30.32548    0.31953    2.28927
 1485.97194   30.38831    0.21906    2.39262
 1486.97395   46.37419    0.21730    2.42151
 1487.97595   30.33860    0.23440    2.36683
 1488.97796   15.74914    0.28747    2.34785
 1489.97996   21.23938    0.28467    2.31748
 1490.98196   53.68885    0.30098    2.25413
 1491.98397   44.35440    0.21377    2.39546
 1492.98597   47.84860    0.24906    2.36239
 1493.98798   52.64786    0.30711    2.30343
 1494.98998   23.01944    0.20790    2.38566
 1495.99198   42.95520    0.25250    2.33396
 1496.99399   42.70419    0.29826    2.29387
 1497.99599   36.43016    0.25841    2.35016
 1498.99800   14.50957    0.27529    2.32581
 1500.00000   48.18237    0.27272    2.33093
