~Version ---------------------------------------------------
VERS.   2.0 : CWLS log ASCII Standard -VERSION 2.0
WRAP.    NO : One line per depth step
DLM . SPACE : Column Data Section Delimiter
~Well ------------------------------------------------------
STRT.M 1000.00000 : START DEPTH
STOP.M 1500.00000 : STOP DEPTH
STEP.M    1.00200 : STEP
NULL.     -999.25 : NULL VALUE
COMP.             : COMPANY
WELL.    WELL-010 : WELL
FLD .             : FIELD
LOC .             : LOCATION
PROV.             : PROVINCE
CNTY.             : COUNTY
STAT.             : STATE
CTRY.             : COUNTRY
SRVC.             : SERVICE COMPANY
DATE.             : DATE
UWI .             : UNIQUE WELL ID
API .             : API NUMBER
~Curve Information -----------------------------------------
DEPT .M     : 
GAMMA.API   : Gamma Ray
NPHI .V/V   : Neutron Porosity
RHOB .G/C3  : Bulk Density
~Params ----------------------------------------------------
~Other -----------------------------------------------------
~ASCII -----------------------------------------------------
# ...
 1178.35671   52.32549    0.21460    2.40904
 1179.35872   32.10946    0.27863    2.32628
 1180.36072   38.33266    0.21385    2.40890
 1181.36273   48.85132    0.22232    2.38020
 1182.36473   43.02656    0.29216    2.28499
 1183.36673   43.73535    0.24907    2.34259
 1184.36874   60.72713    0.21794    2.37278
 1185.37074   18.20807    0.24156    2.35579
 1186.37275   56.24929    0.27513    2.30295
 1187.37475   32.34868    0.27188    2.31692
 1188.37675   53.80157    0.25282    2.31208
 1189.37876   50.19067    0.26458    2.33623
 1190.38076   24.53385    0.17083    2.46459
 1191.38277   32.16356    0.22779    2.38439
 1192.38477   39.47939    0.23588    2.39984
 1193.38677   52.90891    0.32305    2.29001
 1194.38878   43.94009    0.23631    2.40396
 1195.39078   54.87685    0.27660    2.26971
 1196.39279   34.21771    0.25297    2.32020
 1197.39479   48.84699    0.29474    2.30304
 1198.39679   48.28722    0.26264    2.32775
 1199.39880   32.81872    0.21342    2.36746
 1200.40080   43.16322    0.23359    2.36923
 1201.40281   78.80617    0.35484    2.21620
 1202.40481   40.60897    0.27800    2.30835
 1203.40681   42.29416    0.17690    2.43635
 1204.40882   56.74636    0.30962    2.29083
 1205.41082   48.80745    0.16639    2.44849
 1206.41283   50.36904    0.24299    2.33827
 1207.41483   76.38554    0.26765    2.34318
 1208.41683   57.92267    0.28921    2.31550
 1209.41884   16.16916    0.09547    2.53445
 1210.42084   31.98977    0.28467    2.32659
 1211.42285   61.63325    0.34487    2.24987
 1212.42485   35.03437    0.29815    2.26666
 1213.42685   57.42302    0.17246    2.45920
 1214.42886   55.25928    0.21145    2.41873
 1215.43086   36.79585    0.27906    2.30261
 1216.43287   65.69543    0.26977    2.31550
 1217.43487   50.73490    0.23510    2.33800
 1218.43687   25.08378    0.22707    2.37003
 1219.43888   56.91429    0.26590    2.34496
 1220.44088   62.97404    0.27573    2.28865
 1221.44289   47.57289    0.22767    2.37679
 1222.44489   42.85635    0.28648    2.32549
 1223.44689   46.85477    0.19765    2.43539
 1224.44890   53.01080    0.26659    2.32723
 1225.45090   45.63975    0.30093    2.31376
 1226.45291   30.16930    0.28652    2.26555
 1227.45491   32.47262    0.23917    2.37516
 1228.45691   26.88076    0.21603    2.41464
 1229.45892   22.28998    0.28544    2.35671
 1230.46092   36.56236    0.25555    2.33869
 1231.46293   21.32492    0.32278    2.28882
 1232.46493   56.83576    0.26194    2.35581
 1233.46693   46.06867    0.27664    2.32019
 1234.46894   57.97528    0.35125    2.23779
 1235.47094   36.13016    0.20084    2.41972
 1236.47295   44.49537    0.26963    2.30839
 1237.47495   59.82476    0.23828    2.37908
 1238.47695   54.75805    0.31971    2.26705
 1239.47896   61.42155    0.20487    2.45039
 1240.48096   54.40753    0.34586    2.22490
 1241.48297   69.51922    0.15826    2.45713
 1242.48497   38.99019    0.27944    2.32238
 1243.48697   67.71931    0.26850    2.33584
 1244.48898   50.82950    0.28964    2.32070
 1245.49098   61.48364    0.25749    2.33495
 1246.49299   35.91057    0.20416    2.38512
 1247.49499   71.79423    0.27434    2.31651
 1248.49699   73.20927    0.30432    2.28709
 1249.49900   61.55458    0.22520    2.38858
 1250.50100   51.53095    0.19631    2.41034
 1251.50301   34.36418    0.24865    2.34901
 1252.50501   58.95859    0.19140    2.43112
 1253.50701   46.16505    0.30455    2.28209
 1254.50902   64.04621    0.20656    2.36316
 1255.51102   58.11140    0.24773    2.35734
 1256.51303   47.00771    0.16282    2.44564
 1257.51503   65.83916    0.18773    2.43478
 1258.51703   75.65622    0.31050    2.27502
 1259.51904   54.81577    0.19287    2.42760
 1260.52104   58.81602    0.28812    2.30821
 1261.52305   53.23562    0.38196    2.19298
 1262.52505   55.22320    0.30212    2.28710
 1263.52705   63.17727    0.19933    2.38295
 1264.52906   93.92707    0.28487    2.34250
 1265.53106   70.92309    0.27249    2.32298
 1266.53307   41.25308    0.18507    2.42801
 1267.53507   65.73329    0.26559    2.34152
 1268.53707   81.36313    0.27050    2.34641
 1269.53908   67.58659    0.21338    2.35883
 1270.54108   50.86459    0.24645    2.36392
 1271.54309   60.03680    0.34318    2.21659
 1272.54509   50.63061    0.28823    2.28479
 1273.54709   67.23156    0.22800    2.39271
 1274.54910   64.30758    0.24080    2.36646
 1275.55110   62.99458    0.22963    2.40376
 1276.55311   59.05665    0.19016    2.41215
 1277.55511   72.21811    0.36829    2.20983
 1278.55711   63.16505    0.31547    2.25429
 1279.55912   52.63823    0.31107    2.24207
 1280.56112   73.74926    0.25815    2.32844
 1281.56313   57.60554    0.19296    2.42305
 1282.56513   64.61599    0.18976    2.40766
 1283.56713   55.37205    0.30383    2.26015
 1284.56914   69.07677    0.25806    2.38895
 1285.57114   84.28641    0.18760    2.42757
 1286.57315   60.97147    0.29085    2.28476
 1287.57515   69.54677    0.30812    2.28298
 1288.57715   86.33653    0.21277    2.41493
 1289.57916   44.08277    0.21185    2.36296
 1290.58116   74.78344    0.24264    2.38721
 1291.58317   89.32759    0.28604    2.34522
 1292.58517   49.23312    0.29189    2.28804
 1293.58717   63.03831    0.19101    2.43347
 1294.58918   74.33292    0.23285    2.33728
 1295.59118   64.27684    0.23301    2.37942
 1296.59319   98.09580    0.18227    2.42834
 1297.59519   99.87600    0.25975    2.33920
 1298.59719   84.78223    0.31372    2.29434
 1299.59920   85.13820    0.28636    2.33036
 1300.60120   71.83247    0.22199    2.39911
 1301.60321   90.57874    0.35828    2.22691
 1302.60521   87.42220    0.28671    2.30798
 1303.60721   39.36298    0.23021    2.37741
 1304.60922   68.94114    0.15467    2.46058
 1305.61122   90.55473    0.31466    2.26742
 1306.61323   91.45467    0.24651    2.36883
 1307.61523   73.89645    0.23366    2.39997
 1308.61723   89.98901    0.35470    2.23957
 1309.61924   88.22264    0.23088    2.38920
 1310.62124   81.37010    0.26447    2.32844
 1311.62325   90.21630    0.19925    2.40279
 1312.62525   66.94586    0.25295    2.35237
 1313.62725   85.82624    0.22043    2.34370
 1314.62926   59.69803    0.25227    2.35421
 1315.63126   42.85369    0.21232    2.38871
 1316.63327   85.39848    0.21344    2.39130
 1317.63527   79.89773    0.28183    2.32749
 1318.63727   78.05952    0.20757    2.39406
 1319.63928   87.94969    0.23997    2.37980
 1320.64128   72.88522    0.28141    2.31599
 1321.64329   75.42229    0.25765    2.31080
 1322.64529   78.01309    0.23411    2.36922
 1323.64729   84.08703    0.28468    2.31374
 1324.64930   93.81978    0.30886    2.28628
 1325.65130  118.03018    0.26280    2.33156
 1326.65331   84.08617    0.27016    2.33752
 1327.65531   63.96517    0.23532    2.39319
 1328.65731   86.46667    0.17134    2.43268
 1329.65932   85.51512    0.23103    2.35137
 1330.66132   88.58879    0.15700    2.48209
 1331.66333   73.92325    0.25573    2.32273
 1332.66533  107.96008    0.23760    2.36641
 1333.66733  106.58336    0.21500    2.39967
 1334.66934  120.96096    0.32977    2.27888
 1335.67134   76.42298    0.16187    2.47048
 1336.67335  101.87570    0.26428    2.33077
 1337.67535   99.22134    0.15668    2.45169
 1338.67735   85.72285    0.25663    2.36553
 1339.67936   80.06275    0.18801    2.42763
 1340.68136   68.81260    0.24872    2.36555
 1341.68337   91.26343    0.35142    2.20004
 1342.68537  104.94680    0.22201    2.41528
 1343.68737   80.95087    0.26837    2.35402
 1344.68938   86.64117    0.24982    2.35239
 1345.69138   71.97053    0.31045    2.24312
 1346.69339   74.22375    0.30413    2.29466
 1347.69539   79.20357    0.20832    2.39913
 1348.69739   65.89563    0.26263    2.33990
 1349.69940   63.92583    0.30055    2.30848
 1350.70140   72.91699    0.22244    2.34187
 1351.70341  113.25045    0.20566    2.42343
 1352.70541   59.89961    0.17956    2.42174
 1353.70741  110.78225    0.17076    2.45537
 1354.70942   85.52134    0.17100    2.41645
 1355.71142   47.63892    0.22436    2.38768
