~Version ---------------------------------------------------
VERS.   2.0 : CWLS log ASCII Standard -VERSION 2.0
WRAP.    NO : One line per depth step
DLM . SPACE : Column Data Section Delimiter
~Well ------------------------------------------------------
STRT.M 1000.00000 : START DEPTH
STOP.M 1500.00000 : STOP DEPTH
STEP.M    1.00200 : STEP
NULL.     -999.25 : NULL VALUE
COMP.             : COMPANY
WELL.    WELL-002 : WELL
FLD .             : FIELD
LOC .             : LOCATION
PROV.             : PROVINCE
CNTY.             : COUNTY
STAT.             : STATE
CTRY.             : COUNTRY
SRVC.             : SERVICE COMPANY
DATE.             : DATE
UWI .             : UNIQUE WELL ID
API .             : API NUMBER
~Curve Information -----------------------------------------
DEPT .M     : 
GAMMA.API   : Gamma Ray
NEUT .V/V   : Neutron Porosity
DENS .G/C3  : Bulk Density
~Params ----------------------------------------------------
~Other -----------------------------------------------------
~ASCII -----------------------------------------------------
 1000.00000   77.46748    0.18962    2.42414
 1001.00200   99.72277    0.28995    2.26019
 1002.00401  107.28366    0.19350    2.41180
 1003.00601   96.52505    0.24285    2.33700
 1004.00802   62.34282    0.25545    2.37584
 1005.01002   63.24280    0.29723    2.31250
 1006.01202  110.44349    0.24038    2.34998
 1007.01403   68.72747    0.26730    2.34620
 1008.01603   66.77719    0.29084    2.31187
 1009.01804   87.82679    0.25393    2.37676
 1010.02004  104.74858    0.21666    2.42861
 1011.02204   67.00225    0.25978    2.34757
 1012.02405   95.36994    0.12938    2.46817
 1013.02605   76.68067    0.28761    2.32777
 1014.02806   86.19559    0.25768    2.36631
 1015.03006   52.12764    0.27911    2.34389
 1016.03206   82.80005    0.20980    2.40124
 1017.03407   91.18152    0.30490    2.28195
 1018.03607  103.74786    0.17599    2.42153
 1019.03808   83.01478    0.15280    2.50196
 1020.04008   75.44979    0.30672    2.28747
 1021.04208   69.45697    0.31638    2.27370
 1022.04409   84.00766    0.24505    2.35437
 1023.04609   85.99099    0.20893    2.38167
 1024.04810   39.11545    0.28036    2.32503
 1025.05010   80.05503    0.27636    2.32723
 1026.05210   85.14912    0.18644    2.44887
 1027.05411   98.22881    0.26730    2.36850
 1028.05611   60.06378    0.15152    2.46593
 1029.05812   73.43697    0.24513    2.38176
 1030.06012   84.92337    0.24760    2.35629
 1031.06212   56.53517    0.21338    2.38662
 1032.06413   74.11910    0.22083    2.35516
 1033.06613   63.95745    0.22254    2.40742
 1034.06814   74.80045    0.26522    2.31602
 1035.07014   98.43981    0.26782    2.32837
 1036.07214  108.21985    0.27856    2.32849
 1037.07415   61.12144    0.19895    2.39866
 1038.07615   62.40583    0.25164    2.34666
 1039.07816   80.85743    0.19319    2.43106
 1040.08016   52.53882    0.23210    2.40512
 1041.08216  104.78591    0.23096    2.37294
 1042.08417   84.91691    0.30770    2.25810
 1043.08617   78.79549    0.26258    2.32615
 1044.08818   84.25052    0.26950    2.33931
 1045.09018   94.99017    0.29971    2.33292
 1046.09218   53.86116    0.30872    2.30316
 1047.09419   80.90994    0.24898    2.36688
 1048.09619   75.70425    0.34098    2.24329
 1049.09820   86.44338    0.24360    2.35425
 1050.10020   57.26437    0.19698    2.44607
 1051.10220   96.22088    0.24506    2.32138
 1052.10421   74.56933    0.26171    2.34197
 1053.10621  101.31021    0.26789    2.34742
 1054.10822   84.83062    0.23410    2.37639
 1055.11022   85.63653    0.24243    2.33374
 1056.11222   53.03021    0.19084    2.38387
 1057.11423   74.46906    0.22811    2.36556
 1058.11623   66.50349    0.26032    2.29853
 1059.11824   86.77081    0.29513    2.30592
 1060.12024   59.38350    0.23257    2.35177
 1061.12224   89.41072    0.27987    2.32005
 1062.12425   85.37607    0.22452    2.39886
 1063.12625   81.78922    0.22039    2.35238
 1064.12826   83.43819    0.26176    2.31279
 1065.13026   81.66862    0.26142    2.30471
 1066.13226   74.40245    0.29881    2.30218
 1067.13427   65.35940    0.35619    2.26235
 1068.13627   40.06300    0.30950    2.28458
 1069.13828   82.83984    0.24410    2.37931
 1070.14028   50.55498    0.26822    2.35343
 1071.14228   68.19337    0.22408    2.35178
 1072.14429   66.08799    0.22075    2.36229
 1073.14629   99.13383    0.22663    2.39284
 1074.14830   55.15424    0.31490    2.25198
 1075.15030   71.81311    0.23274    2.38994
 1076.15230   80.52151    0.24044    2.34598
 1077.15431   91.95512    0.21428    2.39034
 1078.15631   85.63188    0.16525    2.43771
 1079.15832   54.05619    0.23170    2.36905
 1080.16032   69.78637    0.26016    2.33585
 1081.16232   69.75056    0.16545    2.46965
 1082.16433   60.38711    0.19275    2.41153
 1083.16633   75.07943    0.30311    2.24906
 1084.16834   71.84803    0.20851    2.40242
 1085.17034   70.86636    0.17628    2.42380
 1086.17234   63.55472    0.26545    2.37797
 1087.17435   65.82949    0.30423    2.29150
 1088.17635   68.86862    0.28994    2.30333
 1089.17836   71.40089    0.25894    2.37274
 1090.18036   62.36193    0.26751    2.31423
 1091.18236   57.41744    0.23728    2.34769
 1092.18437   55.07874    0.25610    2.34706
 1093.18637   48.76161    0.17401    2.45517
 1094.18838   63.92140    0.23520    2.41073
 1095.19038   49.06275    0.20968    2.34896
 1096.19238   63.90805    0.20573    2.37892
 1097.19439   23.72137    0.16568    2.47075
 1098.19639   45.25238    0.25540    2.36019
 1099.19840   35.68994    0.30303    2.29308
 1100.20040   55.93777    0.27787    2.29515
 1101.20240   66.21038    0.27604    2.35235
 1102.20441   50.23873    0.18683    2.44673
 1103.20641   72.36612    0.22244    2.34828
 1104.20842   63.38663    0.25537    2.32514
 1105.21042   54.78542    0.21707    2.39208
 1106.21242   50.49807    0.21815    2.39755
 1107.21443   41.89638    0.26128    2.34341
 1108.21643   70.36881    0.28833    2.29879
 1109.21844   49.41779    0.24955    2.35848
 1110.22044   48.94935    0.21989    2.37665
 1111.22244   66.29441    0.22384    2.34945
 1112.22445   65.62483    0.28779    2.29180
 1113.22645   45.21464    0.21401    2.38281
 1114.22846   68.27093    0.21288    2.38821
 1115.23046   32.04131    0.32190    2.25084
 1116.23246   68.20169    0.25366    2.30599
 1117.23447   27.65764    0.24115    2.34824
 1118.23647   49.13915    0.21649    2.42382
 1119.23848   53.21726    0.25582    2.34172
 1120.24048   50.18545    0.25520    2.35955
 1121.24248   69.59904    0.24900    2.35270
 1122.24449   43.13423    0.22350    2.36489
 1123.24649   35.21948    0.24728    2.34956
 1124.24850   65.51369    0.38986    2.17872
 1125.25050   61.39600    0.17886    2.43597
 1126.25251   57.62328    0.29394    2.30047
 1127.25451   52.87495    0.22422    2.38552
 1128.25651   33.47954    0.28502    2.29944
 1129.25852   47.85603    0.33209    2.25380
 1130.26052   51.79013    0.20351    2.42607
 1131.26253   42.96397    0.21488    2.37445
 1132.26453   56.33502    0.29751    2.30179
 1133.26653   38.49637    0.25391    2.34982
 1134.26854   50.92507    0.12062    2.49280
 1135.27054   59.57301    0.26737    2.32791
 1136.27255   60.53027    0.11069    2.48009
 1137.27455   60.23905    0.19439    2.46387
 1138.27655   60.45636    0.21417    2.36859
 1139.27856   59.83394    0.22859    2.38515
 1140.28056   47.20032    0.23886    2.37378
 1141.28257   62.38787    0.24544    2.36272
 1142.28457   64.68755    0.27802    2.31309
 1143.28657   15.98938    0.25519    2.34740
 1144.28858   58.91903    0.15377    2.43256
 1145.29058   28.88029    0.23915    2.32886
 1146.29259   78.93048    0.29300    2.28500
 1147.29459   43.68175    0.21542    2.39208
 1148.29659   25.07034    0.24183    2.38297
 1149.29860   37.38606    0.21832    2.33622
 1150.30060   41.91445    0.25385    2.32455
 1151.30261   52.51497    0.22760    2.38125
 1152.30461   40.61272    0.33359    2.24282
 1153.30661   35.06909    0.21343    2.41941
 1154.30862   42.42450    0.18113    2.42325
 1155.31062   51.89219    0.25569    2.33425
 1156.31263   27.30670    0.27124    2.31829
 1157.31463   37.18981    0.21474    2.37780
 1158.31663   31.82550    0.25486    2.36311
 1159.31864   30.62910    0.27750    2.33111
 1160.32064   25.84187    0.27044    2.31936
 1161.32265   42.70679    0.24771    2.35791
 1162.32465   33.00342    0.24380    2.37577
 1163.32665   26.52090    0.26959    2.32891
 1164.32866   53.68825    0.26278    2.34753
 1165.33066   38.54364    0.26445    2.37498
 1166.33267   41.71923    0.29783    2.29610
 1167.33467   23.38615    0.31435    2.25891
 1168.33667   30.80411    0.21281    2.40274
 1169.33868   32.85902    0.25673    2.31718
 1170.34068   33.80198    0.27812    2.32025
 1171.34269   47.73620    0.23594    2.34730
 1172.34469   28.98591    0.26838    2.32494
 1173.34669   31.86188    0.23709    2.36993
 1174.34870   59.92084    0.31140    2.27600
 1175.35070   33.92033    0.21161    2.40451
 1176.35271   46.76867    0.19245    2.42961
 1177.35471   20.71883    0.23615    2.35475
