~Version ---------------------------------------------------
VERS.   2.0 : CWLS log ASCII Standard -VERSION 2.0
WRAP.    NO : One line per depth step
DLM . SPACE : Column Data Section Delimiter
~Well ------------------------------------------------------
STRT.M 1000.00000 : START DEPTH
STOP.M 1500.00000 : STOP DEPTH
STEP.M    1.00200 : STEP
NULL.     -999.25 : NULL VALUE
COMP.             : COMPANY
WELL.    WELL-005 : WELL
FLD .             : FIELD
LOC .             : LOCATION
PROV.             : PROVINCE
CNTY.             : COUNTY
STAT.             : STATE
CTRY.             : COUNTRY
SRVC.             : SERVICE COMPANY
DATE.             : DATE
UWI .             : UNIQUE WELL ID
API .             : API NUMBER
~Curve Information -----------------------------------------
DEPT     .M     : 
GAMMA_RAY.API   : Gamma Ray
NPHI     .V/V   : Neutron Porosity
RHOB     .G/C3  : Bulk Density
~Params ----------------------------------------------------
~Other -----------------------------------------------------
~ASCII -----------------------------------------------------
# ...
 1356.71343  107.78322    0.17189    2.43798
 1357.71543   87.17341    0.13389    2.48234
 1358.71743   80.55904    0.22667    2.41548
 1359.71944   75.68223    0.26976    2.34781
 1360.72144   88.21121    0.27368    2.32850
 1361.72345   63.94727    0.21017    2.42616
 1362.72545   65.99735    0.20809    2.39123
 1363.72745  102.73702    0.17071    2.46685
 1364.72946   73.05395    0.15441    2.46033
 1365.73146   81.21219    0.31547    2.28018
 1366.73347   83.59526    0.34172    2.23561
 1367.73547   42.67289    0.24280    2.38623
 1368.73747   77.97629    0.26121    2.30469
 1369.73948   74.65795    0.21830    2.40555
 1370.74148   98.53430    0.25847    2.33640
 1371.74349   67.41533    0.19653    2.40067
 1372.74549   74.33618    0.30154    2.33971
 1373.74749   55.59066    0.23696    2.36320
 1374.74950   80.66683    0.25938    2.33716
 1375.75150   85.59853    0.26572    2.33809
 1376.75351   72.93819    0.24002    2.35175
 1377.75551   84.60431    0.30472    2.27997
 1378.75752   87.43811    0.19937    2.39318
 1379.75952   76.95527    0.20069    2.39871
 1380.76152   73.60036    0.19276    2.40980
 1381.76353   72.88531    0.13722    2.47967
 1382.76553  103.23371    0.24611    2.31822
 1383.76754   99.82293    0.24645    2.35163
 1384.76954   80.56695    0.17727    2.42567
 1385.77154   77.87736    0.20216    2.41699
 1386.77355   59.24141    0.24708    2.36173
 1387.77555   53.35134    0.23593    2.38309
 1388.77756   70.14724    0.25815    2.38755
 1389.77956   40.77771    0.25570    2.30570
 1390.78156   73.90450    0.26285    2.33485
 1391.78357   80.32325    0.21791    2.37752
 1392.78557   59.80585    0.20961    2.37951
 1393.78758   71.36650    0.28594    2.30451
 1394.78958   77.39256    0.30290    2.28444
 1395.79158   52.25463    0.19545    2.43509
 1396.79359   62.44043    0.23859    2.35327
 1397.79559   81.08032    0.26467    2.29161
 1398.79760   62.04272    0.25451    2.35634
 1399.79960   69.15569    0.26484    2.34030
 1400.80160   43.64478    0.28562    2.30101
 1401.80361   38.01507    0.31209    2.28743
 1402.80561   66.71819    0.30659    2.30634
 1403.80762   66.50798    0.21929    2.38288
 1404.80962   51.15828    0.28634    2.32025
 1405.81162   56.06385    0.23016    2.38028
 1406.81363   50.69214    0.18892    2.42586
 1407.81563   61.49439    0.25014    2.35243
 1408.81764   43.86663    0.31309    2.26965
 1409.81964   24.61755    0.27718    2.36541
 1410.82164   67.27256    0.23057    2.39060
 1411.82365   41.25460    0.22495    2.37329
 1412.82565   62.11368    0.25833    2.34269
 1413.82766   40.15941    0.29514    2.29752
 1414.82966   78.85493    0.20130    2.42225
 1415.83166   70.24289    0.21472    2.39450
 1416.83367   58.89105    0.22892    2.39666
 1417.83567   67.34809    0.25428    2.30749
 1418.83768   49.14515    0.28141    2.31777
 1419.83968   59.07399    0.21984    2.40562
 1420.84168   38.08258    0.27156    2.34920
 1421.84369   66.83137    0.19472    2.43572
 1422.84569   62.74773    0.15416    2.46233
 1423.84770   62.67189    0.17100    2.49783
 1424.84970   74.09090    0.26220    2.31660
 1425.85170   52.28367    0.21118    2.39191
 1426.85371   59.87108    0.19798    2.40720
 1427.85571   35.10091    0.22322    2.38010
 1428.85772   59.09344    0.23755    2.36287
 1429.85972   64.35179    0.24555    2.33710
 1430.86172   39.98310    0.29386    2.28305
 1431.86373   26.56391    0.17249    2.47646
 1432.86573   67.88786    0.28742    2.29623
 1433.86774   48.29952    0.31671    2.28082
 1434.86974   31.86934    0.26411    2.36220
 1435.87174   36.71352    0.32184    2.29892
 1436.87375   33.28624    0.20663    2.39349
 1437.87575   45.94093    0.28442    2.34068
 1438.87776   53.34419    0.27996    2.30681
 1439.87976   34.49233    0.19192    2.41837
 1440.88176   67.77042    0.22562    2.36978
 1441.88377   44.59286    0.28405    2.30817
 1442.88577   39.14575    0.24763    2.32466
 1443.88778   56.48763    0.27006    2.32264
 1444.88978   14.52975    0.24274    2.37431
 1445.89178   77.63721    0.24145    2.36726
 1446.89379   28.55469    0.23485    2.38656
 1447.89579   60.72762    0.21011    2.37482
 1448.89780   55.18198    0.26695    2.33390
 1449.89980   21.05237    0.24877    2.33541
 1450.90180   39.48479    0.12332    2.51049
 1451.90381   40.56568    0.20035    2.39382
 1452.90581   71.61047    0.13848    2.47015
 1453.90782   44.76708    0.31373    2.30276
 1454.90982   61.37584    0.24774    2.36076
 1455.91182   65.57130    0.19173    2.47385
 1456.91383   60.20960    0.21258    2.42695
 1457.91583   29.20659    0.26809    2.35983
 1458.91784   49.82757    0.31753    2.24792
 1459.91984   47.61889    0.21633    2.37307
 1460.92184   58.29719    0.18769    2.40785
 1461.92385   45.80100    0.31832    2.27683
 1462.92585   60.93397    0.17935    2.48786
 1463.92786   25.93262    0.22246    2.35943
 1464.92986   45.70440    0.14222    2.45814
 1465.93186   66.18650    0.23715    2.36067
 1466.93387   46.81404    0.26930    2.32874
 1467.93587   43.99745    0.22533    2.40062
 1468.93788   61.81771    0.21824    2.37229
 1469.93988   13.95948    0.29772    2.25150
 1470.94188   46.77634    0.27451    2.33684
 1471.94389   30.67456    0.27344    2.30312
 1472.94589   38.47237    0.25678    2.33822
 1473.94790   45.48088    0.35608    2.25120
 1474.94990   35.26328    0.24276    2.37546
 1475.95190   35.69724    0.17502    2.46148
 1476.95391   23.78554    0.23282    2.33936
 1477.95591   65.21973    0.33960    2.24736
 1478.95792   68.01891    0.20843    2.41748
 1479.95992   32.59898    0.27037    2.29485
 1480.96192   42.34449    0.21700    2.37316
 1481.96393   25.95923    0.30704    2.27769
 1482.96593   45.89865    0.22820    2.39051
 1483.96794   54.44012    0.26239    2.29141
 1484.96994   33.09662    0.18587    2.46484
 1485.97194   52.21953    0.23745    2.32695
 1486.97395   30.67661    0.18349    2.42480
 1487.97595   17.47755    0.24996    2.32521
 1488.97796   40.19455    0.22938    2.36445
 1489.97996    7.96972    0.23234    2.35686
 1490.98196   20.91089    0.21200    2.41864
 1491.98397   35.58748    0.21074    2.42617
 1492.98597   37.07779    0.26145    2.31420
 1493.98798   39.82417    0.32977    2.27526
 1494.98998   35.38719    0.21641    2.42660
 1495.99198   27.67587    0.20272    2.40997
 1496.99399   38.60409    0.22931    2.33178
 1497.99599   16.02264    0.36669    2.20577
 1498.99800   47.81492    0.31684    2.22169
 1500.00000    4.88947    0.21828    2.37650
