~Version ---------------------------------------------------
VERS.   2.0 : CWLS log ASCII Standard -VERSION 2.0
WRAP.    NO : One line per depth step
DLM . SPACE : Column Data Section Delimiter
~Well ------------------------------------------------------
STRT.M 1000.00000 : START DEPTH
STOP.M 1500.00000 : STOP DEPTH
STEP.M    1.00200 : STEP
NULL.     -999.25 : NULL VALUE
COMP.             : COMPANY
WELL.    WELL-001 : WELL
FLD .             : FIELD
LOC .             : LOCATION
PROV.             : PROVINCE
CNTY.             : COUNTY
STAT.             : STATE
CTRY.             : COUNTRY
SRVC.             : SERVICE COMPANY
DATE.             : DATE
UWI .             : UNIQUE WELL ID
API .             : API NUMBER
~Curve Information -----------------------------------------
DEPT.M     : 
GR  .API   : Gamma Ray
NPHI.V/V   : Neutron Porosity
RHOB.G/C3  : Bulk Density
~Params ----------------------------------------------------
~Other -----------------------------------------------------
~ASCII -----------------------------------------------------
# ...
 1356.71343   91.78193    0.23642    2.36333
 1357.71543   69.16439    0.14273    2.46203
 1358.71743   65.40682    0.27453    2.31794
 1359.71944   77.69674    0.23540    2.34409
 1360.72144   62.53628    0.27800    2.30716
 1361.72345   94.03144    0.20928    2.36965
 1362.72545  108.48992    0.23442    2.35252
 1363.72745   61.17778    0.23490    2.34898
 1364.72946   65.17299    0.26669    2.32316
 1365.73146   72.23383    0.25589    2.37433
 1366.73347   81.56279    0.31744    2.28156
 1367.73547   83.55740    0.24482    2.34849
 1368.73747   74.56941    0.36570    2.23765
 1369.73948   76.21918    0.25023    2.30274
 1370.74148   69.81237    0.20666    2.38945
 1371.74349   71.83327    0.16745    2.43340
 1372.74549   83.23405    0.33595    2.26233
 1373.74749   63.84693    0.17610    2.41823
 1374.74950   88.88762    0.20210    2.40331
 1375.75150   99.88496    0.18905    2.42707
 1376.75351  104.26992    0.19527    2.36301
 1377.75551   59.45878    0.22295    2.37136
 1378.75752   78.98837    0.23829    2.35253
 1379.75952   68.98895    0.21955    2.38894
 1380.76152   81.76563    0.20899    2.41999
 1381.76353   60.85576    0.30194    2.28055
 1382.76553   55.58933    0.34877    2.22203
 1383.76754   71.51345    0.26734    2.34257
 1384.76954   78.63578    0.23863    2.35683
 1385.77154   57.41100    0.22348    2.35680
 1386.77355   82.10727    0.26894    2.34876
 1387.77555   65.20866    0.31757    2.27653
 1388.77756   44.73648    0.28324    2.31674
 1389.77956   51.80196    0.19711    2.41999
 1390.78156   67.69863    0.30839    2.29028
 1391.78357   49.22832    0.31760    2.26381
 1392.78557   58.95671    0.30810    2.31335
 1393.78758   85.38804    0.19323    2.41627
 1394.78958   66.70489    0.34606    2.21128
 1395.79158   68.55851    0.27029    2.27861
 1396.79359   55.07204    0.32328    2.34361
 1397.79559   72.50687    0.29170    2.32935
 1398.79760   44.18982    0.32095    2.27940
 1399.79960   84.81488    0.25419    2.35312
 1400.80160   85.59977    0.30247    2.28322
 1401.80361   60.84502    0.19072    2.39126
 1402.80561   65.17717    0.23304    2.38189
 1403.80762   63.20977    0.23133    2.38435
 1404.80962   67.32378    0.26705    2.29627
 1405.81162   95.23160    0.25231    2.37675
 1406.81363   65.13910    0.22720    2.38559
 1407.81563   45.01367    0.22835    2.41490
 1408.81764  103.45664    0.30140    2.29318
 1409.81964   89.75549    0.33903    2.22426
 1410.82164   62.74653    0.25617    2.35270
 1411.82365   89.30919    0.26368    2.32482
 1412.82565   80.59349    0.23832    2.36361
 1413.82766   96.40944    0.22404    2.37947
 1414.82966   52.50813    0.34100    2.27854
 1415.83166   57.73497    0.27640    2.33919
 1416.83367   58.21069    0.18917    2.42988
 1417.83567   52.09764    0.32064    2.21984
 1418.83768   61.79332    0.22172    2.40707
 1419.83968   85.79647    0.23236    2.41028
 1420.84168   91.41675    0.24259    2.36994
 1421.84369   53.09961    0.21135    2.41089
 1422.84569   75.48879    0.30598    2.28218
 1423.84770   53.40963    0.23400    2.35646
 1424.84970   49.12807    0.31490    2.31098
 1425.85170   24.10888    0.22176    2.40245
 1426.85371   72.63607    0.11475    2.47494
 1427.85571   49.47410    0.27331    2.34227
 1428.85772   55.03509    0.25590    2.35977
 1429.85972   39.15564    0.32448    2.26070
 1430.86172   36.30612    0.36245    2.21001
 1431.86373   61.01738    0.23959    2.39096
 1432.86573   46.72602    0.27384    2.34976
 1433.86774   27.38518    0.23533    2.36462
 1434.86974   41.95173    0.26390    2.34888
 1435.87174   75.02195    0.24028    2.34605
 1436.87375   59.03867    0.07389    2.54262
 1437.87575   49.31537    0.24927    2.30080
 1438.87776   48.66519    0.21501    2.38566
 1439.87976   53.81585    0.29777    2.28843
 1440.88176   18.06443    0.23344    2.37775
 1441.88377   30.06053    0.26875    2.30367
 1442.88577   43.38957    0.20367    2.40149
 1443.88778   47.46529    0.27067    2.32265
 1444.88978   33.29622    0.17013    2.43446
 1445.89178   62.85706    0.26880    2.30726
 1446.89379   74.71467    0.24651    2.34022
 1447.89579   42.95944    0.26140    2.33430
 1448.89780   37.92471    0.28966    2.31736
 1449.89980   28.05695    0.25505    2.37665
 1450.90180   39.41644    0.21515    2.37542
 1451.90381   52.84673    0.36017    2.22792
 1452.90581   56.12603    0.24857    2.35195
 1453.90782   33.93895    0.30751    2.27012
 1454.90982   51.42263    0.34427    2.24927
 1455.91182   59.79508    0.19025    2.44589
 1456.91383   33.42230    0.14779    2.46165
 1457.91583   58.59947    0.26151    2.34593
 1458.91784   58.60311    0.27672    2.30299
 1459.91984   35.28281    0.21220    2.35563
 1460.92184   36.50454    0.33617    2.21822
 1461.92385   24.66090    0.16059    2.43263
 1462.92585   63.82328    0.20478    2.41169
 1463.92786   43.51859    0.17680    2.44625
 1464.92986   35.05264    0.16006    2.42677
 1465.93186   32.29153    0.29684    2.27340
 1466.93387   43.97435    0.15023    2.47581
 1467.93587   42.62986    0.33950    2.24850
 1468.93788   37.46938    0.26117    2.33145
 1469.93988   21.45620    0.32366    2.26969
 1470.94188   66.41739    0.27126    2.33351
 1471.94389   38.17909    0.27695    2.33365
 1472.94589   26.22547    0.27837    2.35461
 1473.94790   50.94200    0.20693    2.40708
 1474.94990   44.80969    0.27435    2.34694
 1475.95190   33.37446    0.35545    2.24568
 1476.95391   50.25448    0.25456    2.33351
 1477.95591   65.15074    0.18662    2.44626
 1478.95792   24.55783    0.28318    2.33984
 1479.95992   33.78920    0.23306    2.36091
 1480.96192   29.42329    0.25744    2.30690
 1481.96393   47.73668    0.27056    2.32311
 1482.96593   43.32704    0.25326    2.33223
 1483.96794    9.39817    0.29104    2.29753
 1484.96994   54.65889    0.30697    2.27934
 1485.97194   27.70697    0.24863    2.33462
 1486.97395   49.98195    0.24473    2.34666
 1487.97595   63.45403    0.27367    2.30678
 1488.97796   41.51168    0.25268    2.33181
 1489.97996   22.17914    0.20823    2.42217
 1490.98196   41.94443    0.24639    2.38728
 1491.98397   27.44941    0.28489    2.29574
 1492.98597   16.99376    0.36391    2.18018
 1493.98798   11.72719    0.21280    2.41419
 1494.98998   30.31428    0.17720    2.45035
 1495.99198   42.94510    0.35021    2.26308
 1496.99399   34.01718    0.30425    2.24546
 1497.99599   21.03629    0.31702    2.25502
 1498.99800   15.88594    0.17478    2.45083
 1500.00000   58.17138    0.23195    2.40047
