~Version ---------------------------------------------------
VERS.   2.0 : CWLS log ASCII Standard -VERSION 2.0
WRAP.    NO : One line per depth step
DLM . SPACE : Column Data Section Delimiter
~Well ------------------------------------------------------
STRT.M 1000.00000 : START DEPTH
STOP.M 1500.00000 : STOP DEPTH
STEP.M    1.00200 : STEP
NULL.     -999.25 : NULL VALUE
COMP.             : COMPANY
WELL.    WELL-004 : WELL
FLD .             : FIELD
LOC .             : LOCATION
PROV.             : PROVINCE
CNTY.             : COUNTY
STAT.             : STATE
CTRY.             : COUNTRY
SRVC.             : SERVICE COMPANY
DATE.             : DATE
UWI .             : UNIQUE WELL ID
API .             : API NUMBER
~Curve Information -----------------------------------------
DEPT.M     : 
GR  .API   : Gamma Ray
NPHI.V/V   : Neutron Porosity
RHOB.G/C3  : Bulk Density
~Params ----------------------------------------------------
~Other -----------------------------------------------------
~ASCII -----------------------------------------------------
# ...
 1356.71343   85.02770    0.31020    2.28907
 1357.71543   60.29926    0.18788    2.45134
 1358.71743   85.56037    0.24081    2.36589
 1359.71944   79.85816    0.22685    2.37706
 1360.72144   50.70736    0.20143    2.39902
 1361.72345   89.66032    0.23596    2.34575
 1362.72545   75.60633    0.22456    2.38412
 1363.72745   68.63273    0.18365    2.41921
 1364.72946   55.90492    0.30663    2.27716
 1365.73146   93.54461    0.26040    2.35620
 1366.73347   76.21264    0.21813    2.39705
 1367.73547   60.34495    0.20449    2.41018
 1368.73747   88.36881    0.31908    2.21951
 1369.73948   76.97891    0.33492    2.27691
 1370.74148   69.59947    0.23448    2.35838
 1371.74349   63.83057    0.22547    2.38547
 1372.74549   98.17554    0.18411    2.45039
 1373.74749   54.45056    0.22108    2.40240
 1374.74950   52.35258    0.13625    2.50200
 1375.75150   69.22321    0.18331    2.44239
 1376.75351   83.26339    0.32791    2.28428
 1377.75551   86.78419    0.38058    2.19531
 1378.75752   93.55070    0.17201    2.44583
 1379.75952   69.70480    0.29052    2.30207
 1380.76152   63.42777    0.21674    2.41907
 1381.76353   96.92846    0.25554    2.33795
 1382.76553   86.70653    0.29448    2.27243
 1383.76754   75.60465    0.26488    2.33249
 1384.76954   46.10034    0.21258    2.36007
 1385.77154   65.05286    0.22020    2.38528
 1386.77355   56.51895    0.25268    2.32046
 1387.77555   69.94092    0.29226    2.27946
 1388.77756   67.01594    0.23958    2.34546
 1389.77956   86.49908    0.16596    2.48591
 1390.78156   63.71165    0.22889    2.39258
 1391.78357   65.09414    0.23692    2.38080
 1392.78557   79.71672    0.24156    2.36578
 1393.78758   80.52916    0.24409    2.33663
 1394.78958   58.12365    0.30943    2.28390
 1395.79158   99.16940    0.21383    2.40420
 1396.79359   64.52146    0.23727    2.37481
 1397.79559   54.25079    0.24559    2.34396
 1398.79760   48.58692    0.24831    2.37939
 1399.79960   77.60407    0.21392    2.39836
 1400.80160   51.88521    0.28404    2.32297
 1401.80361   47.53312    0.22760    2.37175
 1402.80561   76.14087    0.21901    2.39061
 1403.80762   88.32334    0.25102    2.35585
 1404.80962  100.09543    0.21647    2.42545
 1405.81162   64.42117    0.32244    2.23427
 1406.81363   64.13820    0.22235    2.38572
 1407.81563   46.07564    0.29660    2.30907
 1408.81764   75.91849    0.27005    2.32994
 1409.81964   59.56877    0.17051    2.44475
 1410.82164   54.28292    0.26585    2.31636
 1411.82365   54.31135    0.30167    2.28163
 1412.82565   78.43459    0.22121    2.37551
 1413.82766   89.87212    0.23503    2.36137
 1414.82966   42.60266    0.29712    2.28927
 1415.83166   74.56059    0.24915    2.35720
 1416.83367   64.74262    0.22241    2.36543
 1417.83567   76.28615    0.24775    2.35772
 1418.83768   41.06651    0.29528    2.29779
 1419.83968   61.44355    0.32162    2.26818
 1420.84168   77.52942    0.28438    2.26925
 1421.84369   48.20088    0.15546    2.48750
 1422.84569   37.73478    0.30088    2.29728
 1423.84770   58.53157    0.35794    2.23430
 1424.84970   23.72850    0.27252    2.31786
 1425.85170   24.32485    0.24498    2.36273
 1426.85371   83.56714    0.25582    2.35344
 1427.85571   34.77551    0.24182    2.37819
 1428.85772   75.25755    0.32054    2.28814
 1429.85972   33.26115    0.35455    2.21851
 1430.86172   57.07867    0.22850    2.38764
 1431.86373   59.14086    0.27383    2.31843
 1432.86573   48.03815    0.30241    2.29353
 1433.86774   58.21800    0.28004    2.31446
 1434.86974   64.79211    0.18816    2.42453
 1435.87174   74.40695    0.29964    2.27808
 1436.87375   72.25592    0.29239    2.30539
 1437.87575   29.47939    0.25039    2.32560
 1438.87776   56.76446    0.31133    2.30345
 1439.87976   38.26545    0.23150    2.36250
 1440.88176   32.51299    0.20405    2.39705
 1441.88377   42.38254    0.25917    2.35890
 1442.88577   46.06159    0.34300    2.23572
 1443.88778   64.46393    0.22363    2.37912
 1444.88978   43.98381    0.30068    2.25744
 1445.89178   42.12884    0.37381    2.22454
 1446.89379   17.91284    0.20015    2.39412
 1447.89579   31.94886    0.33916    2.23241
 1448.89780   61.85412    0.31378    2.27437
 1449.89980   44.36837    0.19696    2.43272
 1450.90180   44.45164    0.25574    2.37820
 1451.90381   35.89209    0.25914    2.29970
 1452.90581   38.82968    0.20226    2.42275
 1453.90782   56.93326    0.31440    2.26025
 1454.90982   34.59528    0.25893    2.32288
 1455.91182   64.58782    0.21523    2.39389
 1456.91383   52.97945    0.28907    2.30312
 1457.91583   63.01675    0.35379    2.18713
 1458.91784   50.78896    0.30454    2.32177
 1459.91984   56.04351    0.20331    2.43961
 1460.92184   55.89620    0.09922    2.53320
 1461.92385   67.17198    0.34590    2.24753
 1462.92585   79.42066    0.34253    2.25536
 1463.92786   69.38027    0.30387    2.28417
 1464.92986   36.56310    0.18053    2.44700
 1465.93186   48.50819    0.27565    2.32969
 1466.93387   44.58006    0.24366    2.31892
 1467.93587   59.26473    0.23714    2.38825
 1468.93788   48.17638    0.29038    2.33764
 1469.93988   39.02849    0.24083    2.34353
 1470.94188   24.28651    0.27838    2.30582
 1471.94389   76.93233    0.21112    2.40480
 1472.94589   59.20408    0.34038    2.23612
 1473.94790   13.85499    0.28724    2.33210
 1474.94990   74.85931    0.35066    2.20182
 1475.95190   36.96395    0.17904    2.44466
 1476.95391   41.42690    0.23773    2.34596
 1477.95591   46.24920    0.28170    2.28854
 1478.95792   42.47527    0.27764    2.33653
 1479.95992   35.09662    0.24074    2.36433
 1480.96192   55.32057    0.22172    2.38939
 1481.96393   52.95255    0.28482    2.29539
 1482.96593   59.07907    0.23714    2.33879
 1483.96794   54.70135    0.28640    2.28524
 1484.96994   47.16136    0.18199    2.43676
 1485.97194   49.21100    0.27361    2.31898
 1486.97395   32.43653    0.18590    2.43453
 1487.97595   42.96798    0.19351    2.44947
 1488.97796   53.15483    0.21699    2.38971
 1489.97996   52.88872    0.19742    2.40879
 1490.98196   44.74841    0.24790    2.34889
 1491.98397   51.72616    0.23490    2.35024
 1492.98597   33.64412    0.25475    2.36314
 1493.98798   54.72867    0.34116    2.23784
 1494.98998   52.47624    0.21068    2.36975
 1495.99198   57.60362    0.20402    2.39113
 1496.99399   40.52666    0.26881    2.32263
 1497.99599   32.21924    0.32887    2.23658
 1498.99800   52.86666    0.22498    2.38299
 1500.00000   66.70199    0.15624    2.45066
