~Version ---------------------------------------------------
VERS.   2.0 : CWLS log ASCII Standard -VERSION 2.0
WRAP.    NO : One line per depth step
DLM . SPACE : Column Data Section Delimiter
~Well ------------------------------------------------------
STRT.M 1000.00000 : START DEPTH
STOP.M 1500.00000 : STOP DEPTH
STEP.M    1.00200 : STEP
NULL.     -999.25 : NULL VALUE
COMP.             : COMPANY
WELL.    WELL-009 : WELL
FLD .             : FIELD
LOC .             : LOCATION
PROV.             : PROVINCE
CNTY.             : COUNTY
STAT.             : STATE
CTRY.             : COUNTRY
SRVC.             : SERVICE COMPANY
DATE.             : DATE
UWI .             : UNIQUE WELL ID
API .             : API NUMBER
~Curve Information -----------------------------------------
DEPT.M     : 
GR  .API   : Gamma Ray
NEUT.V/V   : Neutron Porosity
DENS.G/C3  : Bulk Density
~Params ----------------------------------------------------
~Other -----------------------------------------------------
~ASCII -----------------------------------------------------
 1000.00000   58.83289    0.22543    2.35541
 1001.00200   64.07749    0.26295    2.34116
 1002.00401   87.79730    0.16829    2.44657
 1003.00601   60.46916    0.35101    2.24123
 1004.00802   80.44353    0.23549    2.38607
 1005.01002   77.91720    0.25208    2.33877
 1006.01202   51.97621    0.16130    2.46019
 1007.01403   61.16552    0.26174    2.35999
 1008.01603   90.21507    0.20420    2.37884
 1009.01804   96.89939    0.20756    2.37398
 1010.02004   55.69976    0.26104    2.34699
 1011.02204   87.06300    0.26803    2.34674
 1012.02405   82.78955    0.25209    2.32807
 1013.02605   79.32187    0.22768    2.36022
 1014.02806   75.12331    0.28745    2.30435
 1015.03006   89.21897    0.25750    2.37841
 1016.03206   73.20209    0.26864    2.35617
 1017.03407   88.89141    0.15388    2.48130
 1018.03607   66.85577    0.28967    2.30282
 1019.03808   78.94571    0.20348    2.43206
 1020.04008   72.28492    0.28865    2.32620
 1021.04208   91.59860    0.26002    2.32703
 1022.04409   72.08791    0.31255    2.28826
 1023.04609   60.50067    0.28852    2.30273
 1024.04810   94.85212    0.28177    2.26550
 1025.05010   85.77419    0.35770    2.22523
 1026.05210   85.77468    0.17270    2.42840
 1027.05411   73.78459    0.26847    2.32023
 1028.05611   65.77430    0.20569    2.43233
 1029.05812   84.14403    0.20746    2.41491
 1030.06012   77.93994    0.27898    2.31462
 1031.06212   74.68068    0.22645    2.36593
 1032.06413   89.29387    0.23212    2.36161
 1033.06613   76.58566    0.30563    2.28749
 1034.06814  105.36444    0.24381    2.37767
 1035.07014   94.71133    0.21095    2.39035
 1036.07214  100.75971    0.29087    2.31650
 1037.07415   76.99364    0.26565    2.32911
 1038.07615   76.39381    0.23061    2.34176
 1039.07816   69.97333    0.28655    2.30709
 1040.08016   79.95733    0.23831    2.36818
 1041.08216   99.33601    0.35250    2.19059
 1042.08417   37.62424    0.26972    2.30255
 1043.08617   81.72744    0.23873    2.35534
 1044.08818   64.43993    0.25617    2.33792
 1045.09018   93.09627    0.33248    2.22941
 1046.09218  105.70415    0.25623    2.34422
 1047.09419   66.83609    0.21822    2.40169
 1048.09619   58.08418    0.32817    2.23752
 1049.09820   92.08051    0.28091    2.34406
 1050.10020   47.12067    0.20199    2.41389
 1051.10220   53.09777    0.29166    2.31481
 1052.10421   72.43783    0.18373    2.44816
 1053.10621   74.62363    0.25182    2.34085
 1054.10822   52.72753    0.17840    2.44077
 1055.11022   51.57335    0.29298    2.31152
 1056.11222   85.25655    0.20138    2.41310
 1057.11423   53.01418    0.23120    2.33674
 1058.11623   79.51320    0.14357    2.47898
 1059.11824   97.73962    0.30902    2.25034
 1060.12024   82.16432    0.26265    2.31492
 1061.12224   70.88995    0.24642    2.36971
 1062.12425   80.71091    0.25593    2.33329
 1063.12625   63.88598    0.29150    2.32152
 1064.12826   82.42004    0.21481    2.37432
 1065.13026   73.50806    0.24248    2.36034
 1066.13226   82.38696    0.32429    2.30536
 1067.13427   69.08489    0.30538    2.26924
 1068.13627   82.89381    0.32813    2.27926
 1069.13828   91.12057    0.20418    2.41197
 1070.14028   63.34373    0.16100    2.43317
 1071.14228   95.63336    0.30816    2.29975
 1072.14429   71.67290    0.32167    2.32030
 1073.14629   78.21230    0.21788    2.36254
 1074.14830   86.55980    0.24228    2.36061
 1075.15030   95.70334    0.26837    2.32536
 1076.15230   72.80268    0.27360    2.29021
 1077.15431   75.10292    0.13365    2.49318
 1078.15631   76.23649    0.22101    2.37714
 1079.15832   66.54120    0.31209    2.31076
 1080.16032   86.79190    0.32445    2.27830
 1081.16232   58.79902    0.31892    2.26245
 1082.16433   76.13293    0.19872    2.44390
 1083.16633   74.02805    0.16050    2.43429
 1084.16834   76.60832    0.20127    2.38373
 1085.17034   66.35883    0.29220    2.31176
 1086.17234   81.95948    0.30115    2.30189
 1087.17435   34.50562    0.29741    2.28336
 1088.17635   91.99930    0.24294    2.35542
 1089.17836   25.75962    0.34650    2.20486
 1090.18036   41.65189    0.21799    2.35080
 1091.18236   55.45686    0.37506    2.21584
 1092.18437   79.54515    0.30310    2.26059
 1093.18637   63.51729    0.24997    2.35189
 1094.18838   69.42317    0.25976    2.33277
 1095.19038   58.86617    0.26626    2.33775
 1096.19238   43.11895    0.22149    2.38406
 1097.19439   71.15564    0.34586    2.20901
 1098.19639   70.50715    0.24015    2.36243
 1099.19840   83.21380    0.25179    2.37313
 1100.20040   72.78105    0.31222    2.26539
 1101.20240   55.22339    0.38372    2.23436
 1102.20441   61.91732    0.25819    2.33477
 1103.20641   47.71671    0.23947    2.34173
 1104.20842   40.26097    0.26981    2.30431
 1105.21042   39.88374    0.22530    2.37866
 1106.21242   71.22728    0.12159    2.49527
 1107.21443   53.59569    0.29201    2.30427
 1108.21643   60.46748    0.29525    2.27374
 1109.21844   59.36806    0.16091    2.46002
 1110.22044   70.52638    0.28267    2.29030
 1111.22244   54.40054    0.26787    2.34268
 1112.22445   57.01983    0.29903    2.30643
 1113.22645   25.24177    0.23047    2.39495
 1114.22846   57.04140    0.24644    2.33171
 1115.23046   53.86973    0.22809    2.38656
 1116.23246   73.02993    0.28128    2.30984
 1117.23447   69.59080    0.21916    2.36713
 1118.23647   51.67173    0.31949    2.26442
 1119.23848   55.98829    0.22439    2.40008
 1120.24048   83.96215    0.16405    2.43726
 1121.24248   57.31024    0.27645    2.31696
 1122.24449   49.78187    0.20588    2.40833
 1123.24649   65.33688    0.18619    2.41617
 1124.24850   35.13087    0.25322    2.33595
 1125.25050   53.86217    0.27376    2.29390
 1126.25251   53.36846    0.32261    2.26457
 1127.25451   48.13849    0.24624    2.34151
 1128.25651   38.91162    0.31968    2.27426
 1129.25852   33.17001    0.13548    2.47420
 1130.26052   37.83660    0.27197    2.31405
 1131.26253   24.27454    0.34758    2.23594
 1132.26453   49.55794    0.25511    2.36353
 1133.26653   59.83900    0.21008    2.40299
 1134.26854   32.64741    0.32020    2.26479
 1135.27054   58.90109    0.27944    2.33175
 1136.27255   49.25370    0.28208    2.31918
 1137.27455   15.21121    0.33063    2.23667
 1138.27655   24.05560    0.22835    2.37258
 1139.27856   50.30900    0.29306    2.28614
 1140.28056   49.12911    0.31730    2.23604
 1141.28257   30.72196    0.16903    2.44870
 1142.28457   20.69082    0.24309    2.36017
 1143.28657   39.06812    0.24303    2.38910
 1144.28858   25.01458    0.34812    2.21684
 1145.29058   78.86896    0.22510    2.37523
 1146.29259   45.98120    0.28972    2.28970
 1147.29459   50.70075    0.18544    2.40260
 1148.29659   66.38306    0.22863    2.37396
 1149.29860   77.04722    0.30297    2.30251
 1150.30060   51.77689    0.22004    2.41261
 1151.30261   29.40781    0.26801    2.34395
 1152.30461   56.69613    0.24649    2.34480
 1153.30661   36.34459    0.18368    2.42784
 1154.30862   32.51337    0.36207    2.19384
 1155.31062   21.26709    0.30199    2.32978
 1156.31263   60.37071    0.25216    2.35438
 1157.31463   47.10304    0.21596    2.36371
 1158.31663   50.07756    0.27706    2.31583
 1159.31864   46.19203    0.28463    2.28915
 1160.32064   21.54552    0.26986    2.33941
 1161.32265   33.02098    0.28989    2.27810
 1162.32465   52.32267    0.19959    2.41610
 1163.32665   13.23808    0.25390    2.33277
 1164.32866   38.95824    0.18304    2.42986
 1165.33066   43.29440    0.25545    2.32082
 1166.33267   30.06699    0.19740    2.43420
 1167.33467   41.11556    0.18742    2.42117
 1168.33667   15.62546    0.23831    2.36411
 1169.33868    7.63091    0.20397    2.43812
 1170.34068   40.63300    0.22956    2.34241
 1171.34269    5.71849    0.19271    2.44313
 1172.34469   43.00718    0.28328    2.30152
 1173.34669   50.60111    0.25044    2.37818
 1174.34870   41.21933    0.21704    2.44079
 1175.35070   60.72357    0.22745    2.36166
 1176.35271   40.37878    0.22804    2.37410
 1177.35471   39.18350    0.22810    2.40359
