~Version ---------------------------------------------------
VERS.   2.0 : CWLS log ASCII Standard -VERSION 2.0
WRAP.    NO : One line per depth step
DLM . SPACE : Column Data Section Delimiter
~Well ------------------------------------------------------
STRT.M 1000.00000 : START DEPTH
STOP.M 1500.00000 : STOP DEPTH
STEP.M    1.00200 : STEP
NULL.     -999.25 : NULL VALUE
COMP.             : COMPANY
WELL.    WELL-001 : WELL
FLD .             : FIELD
LOC .             : LOCATION
PROV.             : PROVINCE
CNTY.             : COUNTY
STAT.             : STATE
CTRY.             : COUNTRY
SRVC.             : SERVICE COMPANY
DATE.             : DATE
UWI .             : UNIQUE WELL ID
API .             : API NUMBER
~Curve Information -----------------------------------------
DEPT.M     : 
GR  .API   : Gamma Ray
NPHI.V/V   : Neutron Porosity
RHOB.G/C3  : Bulk Density
~Params ----------------------------------------------------
~Other -----------------------------------------------------
~ASCII -----------------------------------------------------
 1000.00000   58.75868    0.16919    2.42741
 1001.00200   59.62981    0.23636    2.37354
 1002.00401   91.00761    0.19149    2.41329
 1003.00601  101.78980    0.20247    2.42608
 1004.00802   68.74011    0.17782    2.42241
 1005.01002   82.47589    0.28297    2.33694
 1006.01202   66.99105    0.23808    2.33833
 1007.01403   91.31647    0.31334    2.25447
 1008.01603   99.35021    0.23943    2.37134
 1009.01804  101.38701    0.31568    2.28926
 1010.02004   85.39037    0.18847    2.45501
 1011.02204   70.30112    0.21743    2.41362
 1012.02405   66.81618    0.22622    2.36906
 1013.02605   55.16099    0.09182    2.51107
 1014.02806   81.99043    0.32337    2.26463
 1015.03006   76.42196    0.23873    2.34887
 1016.03206  107.43678    0.28809    2.32249
 1017.03407   95.84932    0.18943    2.40221
 1018.03607   73.21932    0.26554    2.35043
 1019.03808   67.59448    0.24078    2.35735
 1020.04008   73.46357    0.25014    2.36107
 1021.04208   90.97092    0.25821    2.31158
 1022.04409   84.21835    0.18442    2.45089
 1023.04609   73.60449    0.23925    2.36882
 1024.04810   57.12691    0.31236    2.28150
 1025.05010   74.25064    0.25868    2.36344
 1026.05210   65.68410    0.15045    2.46750
 1027.05411  109.19499    0.20408    2.38667
 1028.05611   95.80301    0.24910    2.32361
 1029.05812   72.38882    0.21985    2.36761
 1030.06012   87.62417    0.36044    2.20789
 1031.06212   53.55515    0.18996    2.43201
 1032.06413   87.63037    0.27350    2.31221
 1033.06613   53.48939    0.18089    2.41213
 1034.06814   90.42323    0.20960    2.40438
 1035.07014   93.43280    0.21171    2.41787
 1036.07214   71.24009    0.28966    2.27834
 1037.07415   62.64971    0.21089    2.38465
 1038.07615   86.86683    0.23190    2.36625
 1039.07816   87.84396    0.13760    2.48294
 1040.08016   66.05657    0.20316    2.37986
 1041.08216   75.56673    0.36781    2.20163
 1042.08417   58.32365    0.31137    2.26306
 1043.08617   87.23622    0.27400    2.31195
 1044.08818   64.62661    0.27498    2.30322
 1045.09018   81.00854    0.20470    2.42330
 1046.09218   82.76176    0.25265    2.34185
 1047.09419   77.88109    0.21925    2.36214
 1048.09619   90.96986    0.19481    2.38018
 1049.09820   78.93871    0.24431    2.34076
 1050.10020 -999.25000    0.34556    2.22862
 1051.10220 -999.25000    0.15403    2.46205
 1052.10421 -999.25000    0.23345    2.36417
 1053.10621 -999.25000    0.36088    2.20586
 1054.10822 -999.25000    0.26347    2.34229
 1055.11022 -999.25000    0.23172    2.39531
 1056.11222 -999.25000    0.21858    2.38430
 1057.11423 -999.25000    0.19848    2.38805
 1058.11623 -999.25000    0.24281    2.33105
 1059.11824 -999.25000    0.39216    2.14165
 1060.12024 -999.25000    0.25285    2.34979
 1061.12224 -999.25000    0.26250    2.29942
 1062.12425 -999.25000    0.30282    2.27072
 1063.12625 -999.25000    0.22405    2.37019
 1064.12826 -999.25000    0.27928    2.32357
 1065.13026 -999.25000    0.30125    2.30136
 1066.13226 -999.25000    0.29379    2.29201
 1067.13427 -999.25000    0.28415    2.34485
 1068.13627 -999.25000    0.24628    2.36838
 1069.13828 -999.25000    0.22841    2.40771
 1070.14028 -999.25000    0.22517    2.39148
 1071.14228 -999.25000    0.23354    2.40960
 1072.14429 -999.25000    0.18252    2.44145
 1073.14629 -999.25000    0.28268    2.28971
 1074.14830 -999.25000    0.25039    2.35151
 1075.15030 -999.25000    0.23851    2.37326
 1076.15230 -999.25000    0.30727    2.30320
 1077.15431 -999.25000    0.21464    2.35807
 1078.15631 -999.25000    0.26035    2.34744
 1079.15832 -999.25000    0.20690    2.37130
 1080.16032 -999.25000    0.32674    2.25781
 1081.16232 -999.25000    0.21417    2.34195
 1082.16433 -999.25000    0.22040    2.37640
 1083.16633 -999.25000    0.20600    2.40802
 1084.16834 -999.25000    0.27343    2.28733
 1085.17034 -999.25000    0.26024    2.34891
 1086.17234 -999.25000    0.24616    2.34849
 1087.17435 -999.25000    0.29861    2.28648
 1088.17635 -999.25000    0.28391    2.28567
 1089.17836 -999.25000    0.21480    2.39275
 1090.18036 -999.25000    0.23836    2.37249
 1091.18236 -999.25000    0.20698    2.39582
 1092.18437 -999.25000    0.18721    2.44875
 1093.18637 -999.25000    0.25623    2.36384
 1094.18838 -999.25000    0.29407    2.28334
 1095.19038 -999.25000    0.32079    2.22369
 1096.19238 -999.25000    0.25555    2.36524
 1097.19439 -999.25000    0.29755    2.30316
 1098.19639 -999.25000    0.32959    2.24406
 1099.19840 -999.25000    0.21962    2.38832
 1100.20040   33.37494    0.30907    2.27303
 1101.20240   56.30526    0.19940    2.36815
 1102.20441   40.42590    0.27588    2.33443
 1103.20641   57.61377    0.22908    2.39316
 1104.20842   56.05705    0.14149    2.46386
 1105.21042   73.98656    0.26078    2.33445
 1106.21242   31.21682    0.19109    2.43886
 1107.21443   48.26177    0.29462    2.28934
 1108.21643   72.44461    0.26029    2.37114
 1109.21844   70.37578    0.20051    2.42059
 1110.22044   46.04530    0.29596    2.29419
 1111.22244   56.57729    0.26328    2.32256
 1112.22445   34.57240    0.27017    2.29895
 1113.22645   45.31496    0.30637    2.27774
 1114.22846   38.48306    0.21501    2.37911
 1115.23046   55.19052    0.29343    2.29098
 1116.23246   63.73098    0.22118    2.36870
 1117.23447   58.75005    0.23139    2.36397
 1118.23647   54.30530    0.22656    2.38898
 1119.23848   40.42845    0.22388    2.40708
 1120.24048   66.85087    0.28511    2.34417
 1121.24248   56.84014    0.22794    2.35651
 1122.24449   55.40587    0.22891    2.37022
 1123.24649   59.75544    0.24629    2.35289
 1124.24850   53.45379    0.33714    2.23450
 1125.25050   43.93694    0.27542    2.32913
 1126.25251   48.78847    0.27406    2.31204
 1127.25451   41.36982    0.18093    2.41716
 1128.25651   32.37389    0.29831    2.26681
 1129.25852   58.59558    0.27726    2.31289
 1130.26052   76.08531    0.20687    2.41602
 1131.26253   69.14683    0.16503    2.44737
 1132.26453   38.28674    0.23025    2.30596
 1133.26653   46.17358    0.22005    2.37776
 1134.26854   30.67757    0.23484    2.36674
 1135.27054   41.72948    0.35056    2.20099
 1136.27255   34.90857    0.26022    2.32074
 1137.27455   19.42501    0.28569    2.30483
 1138.27655   69.04983    0.25782    2.34872
 1139.27856   45.44545    0.24059    2.34395
 1140.28056   67.16701    0.23374    2.36442
 1141.28257   50.14382    0.26088    2.30865
 1142.28457   35.50355    0.30326    2.29962
 1143.28657   45.06498    0.26750    2.36028
 1144.28858   30.87357    0.21054    2.37993
 1145.29058   23.34572    0.23160    2.36763
 1146.29259   25.44166    0.20599    2.41649
 1147.29459   50.33707    0.25568    2.33709
 1148.29659   50.59967    0.21507    2.35992
 1149.29860   38.67149    0.19980    2.46421
 1150.30060   31.88360    0.24953    2.35714
 1151.30261   38.03216    0.24631    2.31828
 1152.30461   64.35035    0.32920    2.21657
 1153.30661   17.87065    0.23933    2.40741
 1154.30862   35.78062    0.19475    2.44194
 1155.31062   57.72159    0.22101    2.37404
 1156.31263   34.00122    0.20699    2.36828
 1157.31463   45.19076    0.24647    2.38152
 1158.31663   33.69248    0.14267    2.53220
 1159.31864   -2.18959    0.17606    2.43005
 1160.32064   61.98196    0.20841    2.40119
 1161.32265   48.77756    0.25141    2.33181
 1162.32465   47.63151    0.25548    2.35298
 1163.32665   43.25937    0.24406    2.35170
 1164.32866   38.87705    0.18918    2.40132
 1165.33066   44.58582    0.22765    2.36323
 1166.33267   28.32473    0.26160    2.35501
 1167.33467   39.78047    0.27090    2.29858
 1168.33667   26.39015    0.24949    2.33731
 1169.33868   45.11753    0.24793    2.31651
 1170.34068   46.91730    0.21902    2.39033
 1171.34269   53.27675    0.22015    2.37619
 1172.34469   22.96872    0.28773    2.30785
 1173.34669   38.15796    0.26102    2.35073
 1174.34870    2.13257    0.17550    2.45360
 1175.35070   30.20624    0.27144    2.33879
 1176.35271   34.25163    0.31419    2.24099
 1177.35471   42.28471    0.27748    2.30280
