~Version ---------------------------------------------------
VERS.   2.0 : CWLS log ASCII Standard -VERSION 2.0
WRAP.    NO : One line per depth step
DLM . SPACE : Column Data Section Delimiter
~Well ------------------------------------------------------
STRT.M 1000.00000 : START DEPTH
STOP.M 1500.00000 : STOP DEPTH
STEP.M    1.00200 : STEP
NULL.     -999.25 : NULL VALUE
COMP.             : COMPANY
WELL.    WELL-005 : WELL
FLD .             : FIELD
LOC .             : LOCATION
PROV.             : PROVINCE
CNTY.             : COUNTY
STAT.             : STATE
CTRY.             : COUNTRY
SRVC.             : SERVICE COMPANY
DATE.             : DATE
UWI .             : UNIQUE WELL ID
API .             : API NUMBER
~Curve Information -----------------------------------------
DEPT     .M     : 
GAMMA_RAY.API   : Gamma Ray
NPHI     .V/V   : Neutron Porosity
RHOB     .G/C3  : Bulk Density
~Params ----------------------------------------------------
~Other -----------------------------------------------------
~ASCII -----------------------------------------------------
# ...
 1178.35671   34.08399    0.26526    2.32454
 1179.35872   35.36244    0.25107    2.33199
 1180.36072   31.89808    0.18569    2.39632
 1181.36273   47.45096    0.27999    2.31006
 1182.36473   60.84053    0.29086    2.33481
 1183.36673   60.26998    0.28097    2.31008
 1184.36874   49.67509    0.16731    2.44718
 1185.37074   59.95698    0.27338    2.36207
 1186.37275   52.03242    0.25228    2.34533
 1187.37475   14.80313    0.20154    2.44078
 1188.37675   37.22532    0.28736    2.30608
 1189.37876   29.51624    0.26490    2.32706
 1190.38076   22.96284    0.28502    2.34554
 1191.38277   39.53962    0.13627    2.53111
 1192.38477   29.19775    0.25857    2.33962
 1193.38677   49.51576    0.18533    2.43040
 1194.38878   30.05918    0.26465    2.35519
 1195.39078   25.84492    0.17093    2.43829
 1196.39279   26.09520    0.27066    2.31691
 1197.39479   31.69552    0.22210    2.40122
 1198.39679   36.81557    0.26635    2.32970
 1199.39880   10.51513    0.21367    2.39779
 1200.40080   11.26507 -999.25000    2.29367
 1201.40281   56.19269 -999.25000    2.30513
 1202.40481   37.60340 -999.25000    2.42198
 1203.40681   55.21364 -999.25000    2.42944
 1204.40882   47.44224 -999.25000    2.36948
 1205.41082   31.01588 -999.25000    2.29187
 1206.41283   30.74320 -999.25000    2.33046
 1207.41483   30.10049 -999.25000    2.41213
 1208.41683   22.80624 -999.25000    2.42118
 1209.41884   70.71162 -999.25000    2.42757
 1210.42084   16.10941 -999.25000    2.38493
 1211.42285   35.74720 -999.25000    2.20981
 1212.42485   47.50701 -999.25000    2.35786
 1213.42685   56.30301 -999.25000    2.35187
 1214.42886   63.61726 -999.25000    2.30096
 1215.43086   25.58437 -999.25000    2.37325
 1216.43287   52.10730 -999.25000    2.39001
 1217.43487   47.60601 -999.25000    2.38035
 1218.43687   39.23429 -999.25000    2.24478
 1219.43888   38.92687 -999.25000    2.29903
 1220.44088   75.11428 -999.25000    2.32899
 1221.44289   43.67938 -999.25000    2.27529
 1222.44489   55.27455 -999.25000    2.29310
 1223.44689   56.48290 -999.25000    2.30271
 1224.44890   73.95825 -999.25000    2.37672
 1225.45090   68.84196 -999.25000    2.31967
 1226.45291   30.93600 -999.25000    2.25884
 1227.45491   53.17747 -999.25000    2.42037
 1228.45691   47.82366 -999.25000    2.31115
 1229.45892   27.86293 -999.25000    2.30663
 1230.46092   55.33384 -999.25000    2.36345
 1231.46293   49.00134 -999.25000    2.26993
 1232.46493   57.54671 -999.25000    2.32711
 1233.46693   33.96732 -999.25000    2.30831
 1234.46894   43.75508 -999.25000    2.33691
 1235.47094   42.69888 -999.25000    2.31258
 1236.47295   45.39024 -999.25000    2.36551
 1237.47495   43.10904 -999.25000    2.24072
 1238.47695   85.11578 -999.25000    2.41644
 1239.47896   56.35015 -999.25000    2.42397
 1240.48096   70.12394 -999.25000    2.35089
 1241.48297   46.71535 -999.25000    2.29336
 1242.48497   68.19407 -999.25000    2.37464
 1243.48697   88.86114 -999.25000    2.39029
 1244.48898   75.98363 -999.25000    2.43733
 1245.49098   57.53905 -999.25000    2.33741
 1246.49299   59.87472 -999.25000    2.46338
 1247.49499   54.05440 -999.25000    2.40675
 1248.49699   58.75951 -999.25000    2.44877
 1249.49900   56.74597 -999.25000    2.22827
 1250.50100   55.52811    0.24735    2.34017
 1251.50301   72.71957    0.31513    2.27190
 1252.50501   44.44123    0.34495    2.20735
 1253.50701   73.64885    0.30410    2.29868
 1254.50902   61.92447    0.12247    2.48697
 1255.51102   63.82286    0.29734    2.28430
 1256.51303   67.38971    0.18580    2.43742
 1257.51503   59.16740    0.25809    2.34618
 1258.51703   59.07456    0.25996    2.32820
 1259.51904   49.58796    0.27144    2.35042
 1260.52104   33.31033    0.13588    2.47672
 1261.52305   59.00511    0.28373    2.29795
 1262.52505   54.23640    0.22514    2.36569
 1263.52705   62.45561    0.23602    2.37520
 1264.52906   68.21664    0.30854    2.31017
 1265.53106   55.50260    0.23068    2.38369
 1266.53307   68.95535    0.26948    2.31803
 1267.53507   41.93268    0.20263    2.43592
 1268.53707   68.91405    0.23753    2.38274
 1269.53908   58.06469    0.18263    2.46565
 1270.54108   58.56772    0.23970    2.35139
 1271.54309   86.83595    0.25980    2.35697
 1272.54509   45.24416    0.25587    2.31786
 1273.54709   68.91322    0.17866    2.41299
 1274.54910   55.07268    0.26619    2.31496
 1275.55110   44.19397    0.24158    2.37092
 1276.55311   64.03012    0.25427    2.31998
 1277.55511   55.97229    0.26717    2.32508
 1278.55711   82.72913    0.14177    2.48634
 1279.55912   85.07663    0.20936    2.39379
 1280.56112   74.01488    0.21891    2.40074
 1281.56313   60.95323    0.19980    2.38981
 1282.56513   60.04995    0.25195    2.35253
 1283.56713   62.42983    0.24086    2.36394
 1284.56914   81.45710    0.21703    2.39619
 1285.57114   86.68032    0.24411    2.38438
 1286.57315   70.10043    0.34366    2.25674
 1287.57515   68.10703    0.25878    2.35949
 1288.57715   75.47148    0.23803    2.34034
 1289.57916   55.02629    0.19974    2.45678
 1290.58116   36.44298    0.27241    2.31662
 1291.58317   60.41413    0.29591    2.34946
 1292.58517   79.81865    0.23731    2.37237
 1293.58717   69.25016    0.24782    2.33139
 1294.58918  110.43177    0.13745    2.51586
 1295.59118   93.72937    0.24120    2.34115
 1296.59319   89.89572    0.26128    2.35122
 1297.59519   87.74616    0.24988    2.34779
 1298.59719   82.46993    0.35372    2.22426
 1299.59920   70.43142    0.27255    2.32720
 1300.60120   74.65158    0.26416    2.36237
 1301.60321   68.39663    0.23512    2.36488
 1302.60521   84.69490    0.34923    2.25698
 1303.60721   68.37569    0.30923    2.28346
 1304.60922  100.83801    0.28621    2.33917
 1305.61122   75.02917    0.28266    2.31061
 1306.61323   82.14431    0.24414    2.37206
 1307.61523   86.30742    0.22994    2.33732
 1308.61723   83.55096    0.15475    2.49214
 1309.61924   85.83695    0.29138    2.31509
 1310.62124   69.41992    0.21112    2.37387
 1311.62325   65.98075    0.21154    2.39818
 1312.62525   73.80176    0.25858    2.31455
 1313.62725   71.10787    0.27993    2.33146
 1314.62926   90.49703    0.26548    2.30705
 1315.63126   71.94579    0.11399    2.52444
 1316.63327   95.12937    0.32181    2.26331
 1317.63527  100.58337    0.25100    2.37544
 1318.63727  112.30284    0.28102    2.30971
 1319.63928   71.05903    0.27425    2.31427
 1320.64128   55.95521    0.22660    2.38769
 1321.64329   88.11156    0.30922    2.22741
 1322.64529  109.77939    0.27206    2.32626
 1323.64729   65.41635    0.26710    2.33808
 1324.64930   90.30772    0.25328    2.32581
 1325.65130   81.64426    0.26684    2.31877
 1326.65331   72.27828    0.33637    2.27152
 1327.65531   85.20380    0.28514    2.32661
 1328.65731   74.32131    0.20774    2.39972
 1329.65932   74.33877    0.26650    2.31145
 1330.66132   89.08705    0.22322    2.39077
 1331.66333   93.26011    0.27382    2.30523
 1332.66533   76.30652    0.26388    2.33506
 1333.66733   70.59900    0.24290    2.31756
 1334.66934   85.71875    0.18933    2.44274
 1335.67134   65.68672    0.24349    2.35410
 1336.67335   92.45369    0.29215    2.29806
 1337.67535   71.91184    0.24158    2.36570
 1338.67735   53.69652    0.24170    2.35146
 1339.67936   62.04777    0.27557    2.31975
 1340.68136   81.18659    0.25113    2.32510
 1341.68337   69.71927    0.21929    2.37413
 1342.68537   84.30198    0.28175    2.31161
 1343.68737   97.04264    0.23419    2.38335
 1344.68938   58.29374    0.31925    2.26422
 1345.69138   71.18668    0.27953    2.27908
 1346.69339   87.39906    0.23058    2.37758
 1347.69539   68.75227    0.30496    2.28212
 1348.69739   72.06501    0.25131    2.33174
 1349.69940   70.23535    0.30255    2.28043
 1350.70140   93.87483    0.23915    2.37918
 1351.70341  105.79778    0.27688    2.30074
 1352.70541   75.57936    0.26084    2.32395
 1353.70741   68.33773    0.30654    2.28497
 1354.70942   95.81024    0.26164    2.32980
 1355.71142   47.69167    0.22364    2.37433
