~Version ---------------------------------------------------
VERS.   2.0 : CWLS log ASCII Standard -VERSION 2.0
WRAP.    NO : One line per depth step
DLM . SPACE : Column Data Section Delimiter
~Well ------------------------------------------------------
STRT.M 1000.00000 : START DEPTH
STOP.M 1500.00000 : STOP DEPTH
STEP.M    1.00200 : STEP
NULL.     -999.25 : NULL VALUE
COMP.             : COMPANY
WELL.    WELL-010 : WELL
FLD .             : FIELD
LOC .             : LOCATION
PROV.             : PROVINCE
CNTY.             : COUNTY
STAT.             : STATE
CTRY.             : COUNTRY
SRVC.             : SERVICE COMPANY
DATE.             : DATE
UWI .             : UNIQUE WELL ID
API .             : API NUMBER
~Curve Information -----------------------------------------
DEPT .M     : 
GAMMA.API   : Gamma Ray
NPHI .V/V   : Neutron Porosity
RHOB .G/C3  : Bulk Density
~Params ----------------------------------------------------
~Other -----------------------------------------------------
~ASCII -----------------------------------------------------
 1000.00000   88.04810    0.26034    2.33724
 1001.00200   68.09733    0.26081    2.30859
 1002.00401   59.99170    0.21010    2.40039
 1003.00601   57.29344    0.15385    2.48418
 1004.00802  101.68746    0.23356    2.33052
 1005.01002   55.67479    0.25003    2.34766
 1006.01202   87.65128    0.22604    2.34621
 1007.01403   70.38604    0.21807    2.40155
 1008.01603   52.07422    0.27971    2.33077
 1009.01804   86.77471    0.17565    2.45436
 1010.02004   46.58720    0.30544    2.29504
 1011.02204   68.27343    0.22218    2.37708
 1012.02405   92.99686    0.30210    2.32639
 1013.02605   74.00535    0.29534    2.29449
 1014.02806   72.77530    0.30885    2.26998
 1015.03006   70.74923    0.27326    2.29920
 1016.03206   83.44331    0.22444    2.38756
 1017.03407   59.35917    0.26783    2.33812
 1018.03607   84.77215    0.30120    2.27947
 1019.03808   95.89332    0.27554    2.32874
 1020.04008   70.21514    0.29997    2.31839
 1021.04208   66.62714    0.23606    2.35621
 1022.04409   80.97150    0.22807    2.37858
 1023.04609   85.86964    0.26840    2.35654
 1024.04810   76.71730    0.19240    2.44094
 1025.05010   74.55323    0.28092    2.30455
 1026.05210   87.08691    0.24146    2.34177
 1027.05411   78.55746    0.22514    2.41441
 1028.05611   91.61993    0.20035    2.41253
 1029.05812   85.01419    0.09868    2.49084
 1030.06012   71.94530    0.25732    2.34176
 1031.06212   92.76468    0.18659    2.41250
 1032.06413   44.58200    0.31222    2.30456
 1033.06613   87.54146    0.16859    2.42600
 1034.06814  110.67917    0.19087    2.40252
 1035.07014   69.77512    0.25647    2.34406
 1036.07214   76.95670    0.26371    2.35392
 1037.07415   66.16109    0.21859    2.38231
 1038.07615   90.86117    0.21603    2.37640
 1039.07816   82.67921    0.23086    2.36999
 1040.08016   83.66790    0.43826    2.15120
 1041.08216   59.58918    0.32447    2.26646
 1042.08417  100.34473    0.35989    2.19935
 1043.08617  104.54020    0.18196    2.39186
 1044.08818   80.24971    0.34039    2.27534
 1045.09018   85.31677    0.17040    2.43185
 1046.09218   90.93818    0.26640    2.32515
 1047.09419   59.94374    0.27629    2.28707
 1048.09619   94.46431    0.21008    2.39575
 1049.09820   63.08634    0.27914    2.28988
 1050.10020 -999.25000    0.20277    2.37859
 1051.10220 -999.25000    0.29019    2.31390
 1052.10421 -999.25000    0.30415    2.27038
 1053.10621 -999.25000    0.23823    2.37671
 1054.10822 -999.25000    0.31520    2.30636
 1055.11022 -999.25000    0.20744    2.40013
 1056.11222 -999.25000    0.16761    2.46308
 1057.11423 -999.25000    0.28455    2.31157
 1058.11623 -999.25000    0.17813    2.41761
 1059.11824 -999.25000    0.28660    2.30620
 1060.12024 -999.25000    0.30470    2.31042
 1061.12224 -999.25000    0.28782    2.27567
 1062.12425 -999.25000    0.26498    2.33161
 1063.12625 -999.25000    0.24639    2.33889
 1064.12826 -999.25000    0.21907    2.38044
 1065.13026 -999.25000    0.21106    2.37911
 1066.13226 -999.25000    0.21008    2.43594
 1067.13427 -999.25000    0.17345    2.41414
 1068.13627 -999.25000    0.36950    2.18652
 1069.13828 -999.25000    0.29321    2.28691
 1070.14028 -999.25000    0.27564    2.31392
 1071.14228 -999.25000    0.13178    2.47852
 1072.14429 -999.25000    0.22016    2.38585
 1073.14629 -999.25000    0.17561    2.43933
 1074.14830 -999.25000    0.28759    2.28964
 1075.15030 -999.25000    0.22515    2.39273
 1076.15230 -999.25000    0.24875    2.34164
 1077.15431 -999.25000    0.21339    2.40884
 1078.15631 -999.25000    0.24480    2.36090
 1079.15832 -999.25000    0.25559    2.35123
 1080.16032 -999.25000    0.30228    2.28404
 1081.16232 -999.25000    0.22665    2.37890
 1082.16433 -999.25000    0.30559    2.27936
 1083.16633 -999.25000    0.26947    2.32299
 1084.16834 -999.25000    0.18193    2.43804
 1085.17034 -999.25000    0.25047    2.35442
 1086.17234 -999.25000    0.26979    2.31565
 1087.17435 -999.25000    0.26789    2.31145
 1088.17635 -999.25000    0.31042    2.27420
 1089.17836 -999.25000    0.22668    2.35538
 1090.18036 -999.25000    0.29677    2.28364
 1091.18236 -999.25000    0.35194    2.23066
 1092.18437 -999.25000    0.27182    2.35241
 1093.18637 -999.25000    0.15511    2.49605
 1094.18838 -999.25000    0.23157    2.35238
 1095.19038 -999.25000    0.26705    2.34768
 1096.19238 -999.25000    0.28966    2.28748
 1097.19439 -999.25000    0.27212    2.28285
 1098.19639 -999.25000    0.22374    2.39105
 1099.19840 -999.25000    0.28821    2.29677
 1100.20040   29.28062    0.27428    2.30345
 1101.20240   42.93043    0.26003    2.36100
 1102.20441   64.55575    0.19670    2.37824
 1103.20641   52.59433    0.14549    2.43794
 1104.20842   41.07958    0.26152    2.34903
 1105.21042   53.63481    0.19056    2.43303
 1106.21242   78.53747    0.28676    2.31462
 1107.21443   55.43398    0.24744    2.33848
 1108.21643   58.02359    0.17779    2.42159
 1109.21844   46.91006    0.39546    2.16400
 1110.22044   77.78450    0.21996    2.40886
 1111.22244   16.20106    0.19470    2.38478
 1112.22445   47.56237    0.22040    2.38706
 1113.22645   53.50791    0.15368    2.45168
 1114.22846   52.02096    0.31036    2.24608
 1115.23046   63.16416    0.23537    2.34980
 1116.23246   56.55206    0.27943    2.31629
 1117.23447   48.66186    0.19119    2.43974
 1118.23647   30.24122    0.23136    2.37693
 1119.23848   28.30910    0.25305    2.33264
 1120.24048   35.31885    0.29161    2.29804
 1121.24248   57.24445    0.36101    2.20481
 1122.24449   68.19205    0.13631    2.48099
 1123.24649   61.93742    0.21905    2.39655
 1124.24850   44.42384    0.23772    2.37662
 1125.25050   25.73482    0.39352    2.20898
 1126.25251   63.75477    0.30725    2.28444
 1127.25451   39.65968    0.29883    2.29683
 1128.25651   44.52490    0.33048    2.28236
 1129.25852   62.61663    0.29943    2.31975
 1130.26052   60.38721    0.35077    2.24119
 1131.26253   78.05166    0.28858    2.30867
 1132.26453   51.18339    0.28939    2.28557
 1133.26653   39.66112    0.24862    2.33751
 1134.26854   47.64772    0.19118    2.43936
 1135.27054   40.93031    0.24107    2.36965
 1136.27255   44.64627    0.24477    2.38611
 1137.27455   73.02986    0.25388    2.32424
 1138.27655   12.32127    0.18558    2.45158
 1139.27856   62.29145    0.23912    2.35675
 1140.28056   52.89336    0.14826    2.46238
 1141.28257   64.85872    0.20320    2.38336
 1142.28457   66.07829    0.13192    2.48289
 1143.28657   25.79933    0.23743    2.37266
 1144.28858   24.33907    0.24643    2.35410
 1145.29058   30.31443    0.27394    2.33427
 1146.29259   47.28443    0.24427    2.37256
 1147.29459   35.13507    0.27786    2.31223
 1148.29659   38.15052    0.31532    2.26669
 1149.29860   33.80316    0.11882    2.52137
 1150.30060   43.57820    0.25406    2.33888
 1151.30261   66.21323    0.22763    2.38830
 1152.30461   45.52653    0.14977    2.46517
 1153.30661   15.91155    0.24866    2.36641
 1154.30862   32.90179    0.23494    2.37221
 1155.31062   51.37703    0.23018    2.41646
 1156.31263   49.32652    0.21203    2.43378
 1157.31463   66.43990    0.22555    2.37844
 1158.31663   49.50022    0.25392    2.35315
 1159.31864   14.86866    0.25723    2.33532
 1160.32064   37.29222    0.23010    2.38485
 1161.32265   38.46963    0.28160    2.29172
 1162.32465   50.76150    0.27699    2.30714
 1163.32665   23.06537    0.22748    2.38591
 1164.32866   58.89113    0.20058    2.43578
 1165.33066   35.94108    0.15719    2.43997
 1166.33267   29.56195    0.26581    2.35342
 1167.33467   38.79057    0.20138    2.40142
 1168.33667   29.21289    0.22260    2.37390
 1169.33868   26.56618    0.35054    2.25161
 1170.34068   52.05911    0.16055    2.45871
 1171.34269   23.20120    0.23957    2.34908
 1172.34469   41.67746    0.14869    2.47787
 1173.34669   49.45839    0.22389    2.38663
 1174.34870   43.77004    0.22684    2.38157
 1175.35070   26.00937    0.29589    2.31777
 1176.35271   40.42846    0.24515    2.35980
 1177.35471   48.89519    0.28437    2.29432
