~Version ---------------------------------------------------
VERS.   2.0 : CWLS log ASCII Standard -VERSION 2.0
WRAP.    NO : One line per depth step
DLM . SPACE : Column Data Section Delimiter
~Well ------------------------------------------------------
STRT.M 1000.00000 : START DEPTH
STOP.M 1500.00000 : STOP DEPTH
STEP.M    1.00200 : STEP
NULL.     -999.25 : NULL VALUE
COMP.             : COMPANY
WELL.    WELL-009 : WELL
FLD .             : FIELD
LOC .             : LOCATION
PROV.             : PROVINCE
CNTY.             : COUNTY
STAT.             : STATE
CTRY.             : COUNTRY
SRVC.             : SERVICE COMPANY
DATE.             : DATE
UWI .             : UNIQUE WELL ID
API .             : API NUMBER
~Curve Information -----------------------------------------
DEPT.M     : 
GR  .API   : Gamma Ray
NEUT.V/V   : Neutron Porosity
DENS.G/C3  : Bulk Density
~Params ----------------------------------------------------
~Other -----------------------------------------------------
~ASCII -----------------------------------------------------
# ...
 1178.35671   40.33975    0.24373    2.36618
 1179.35872   48.10247    0.20945    2.36964
 1180.36072   42.91952    0.25077    2.33063
 1181.36273   23.62016    0.21098    2.38891
 1182.36473   60.11978    0.30777    2.28069
 1183.36673   28.75830    0.34565    2.23174
 1184.36874   40.43286    0.27206    2.32292
 1185.37074   41.06877    0.26102    2.35801
 1186.37275   25.72838    0.21911    2.37971
 1187.37475   38.69196    0.35140    2.23926
 1188.37675   53.37206    0.34429    2.21177
 1189.37876   43.33876    0.17493    2.43859
 1190.38076   34.71477    0.24279    2.36956
 1191.38277   34.58565    0.26524    2.32705
 1192.38477   51.10786    0.27569    2.33052
 1193.38677   42.68515    0.20948    2.42759
 1194.38878   23.85960    0.26440    2.34375
 1195.39078   19.79382    0.15480    2.46560
 1196.39279   68.45002    0.18485    2.42081
 1197.39479   40.30636    0.22840    2.36713
 1198.39679   46.15831    0.27494    2.33077
 1199.39880   27.93816    0.27966    2.34120
 1200.40080   38.80191 -999.25000    2.42603
 1201.40281   26.15507 -999.25000    2.48521
 1202.40481   51.22087 -999.25000    2.41275
 1203.40681   55.71008 -999.25000    2.37562
 1204.40882   52.33537 -999.25000    2.32073
 1205.41082   42.21463 -999.25000    2.38958
 1206.41283   36.38900 -999.25000    2.26275
 1207.41483   56.77350 -999.25000    2.39786
 1208.41683   41.41250 -999.25000    2.44937
 1209.41884   54.29030 -999.25000    2.24435
 1210.42084   49.10986 -999.25000    2.40095
 1211.42285   29.66339 -999.25000    2.29866
 1212.42485   36.17650 -999.25000    2.37023
 1213.42685   47.26195 -999.25000    2.32456
 1214.42886   52.79487 -999.25000    2.27967
 1215.43086   54.16431 -999.25000    2.35298
 1216.43287   31.22229 -999.25000    2.42517
 1217.43487   45.81012 -999.25000    2.42741
 1218.43687   24.67669 -999.25000    2.35895
 1219.43888   45.46464 -999.25000    2.34687
 1220.44088   43.29797 -999.25000    2.40950
 1221.44289   34.16029 -999.25000    2.37252
 1222.44489   48.45177 -999.25000    2.37110
 1223.44689   47.23828 -999.25000    2.42126
 1224.44890   80.64130 -999.25000    2.36221
 1225.45090   51.26304 -999.25000    2.30169
 1226.45291   18.50633 -999.25000    2.34673
 1227.45491   55.37152 -999.25000    2.37921
 1228.45691   59.96266 -999.25000    2.47052
 1229.45892   56.77334 -999.25000    2.38803
 1230.46092   34.30146 -999.25000    2.31103
 1231.46293   45.52908 -999.25000    2.26609
 1232.46493   41.89563 -999.25000    2.43275
 1233.46693   49.44404 -999.25000    2.54136
 1234.46894   54.81124 -999.25000    2.33077
 1235.47094   41.15948 -999.25000    2.35003
 1236.47295   56.24589 -999.25000    2.41967
 1237.47495   31.22025 -999.25000    2.28426
 1238.47695   54.26567 -999.25000    2.33578
 1239.47896   36.32060 -999.25000    2.33591
 1240.48096   47.64828 -999.25000    2.31314
 1241.48297   54.05753 -999.25000    2.32483
 1242.48497   60.95831 -999.25000    2.27190
 1243.48697   50.43025 -999.25000    2.32175
 1244.48898   48.68236 -999.25000    2.34870
 1245.49098   41.85576 -999.25000    2.42078
 1246.49299   65.45410 -999.25000    2.35251
 1247.49499   45.26992 -999.25000    2.36614
 1248.49699   57.74181 -999.25000    2.35688
 1249.49900   50.37755 -999.25000    2.26613
 1250.50100   46.32151    0.26223    2.31825
 1251.50301   83.74781    0.20505    2.40056
 1252.50501   73.81573    0.28871    2.35921
 1253.50701   46.63536    0.19795    2.40748
 1254.50902   40.61647    0.33141    2.25375
 1255.51102   26.08809    0.17177    2.43119
 1256.51303   41.91508    0.33222    2.22155
 1257.51503   50.43607    0.28579    2.29775
 1258.51703   64.05750    0.27554    2.30346
 1259.51904   71.38565    0.22026    2.38244
 1260.52104   47.88939    0.21333    2.41044
 1261.52305   74.30273    0.29426    2.29558
 1262.52505   71.68349    0.25771    2.34722
 1263.52705   58.34195    0.28242    2.32887
 1264.52906   60.38438    0.34173    2.22177
 1265.53106   69.63111    0.26813    2.35690
 1266.53307   58.95480    0.31027    2.30864
 1267.53507   77.10401    0.25132    2.31832
 1268.53707   78.24074    0.25036    2.32883
 1269.53908   61.29796    0.23063    2.38911
 1270.54108   64.47518    0.17977    2.41445
 1271.54309   36.63430    0.16906    2.46122
 1272.54509   58.82476    0.23192    2.38096
 1273.54709   62.60358    0.21609    2.41107
 1274.54910   60.12231    0.33819    2.21357
 1275.55110   50.34260    0.33718    2.24790
 1276.55311   66.58052    0.17592    2.43243
 1277.55511   87.53557    0.23651    2.36623
 1278.55711   84.39325    0.28942    2.29486
 1279.55912   96.02651    0.29679    2.31967
 1280.56112   72.89457    0.24698    2.35609
 1281.56313   73.56972    0.34432    2.21058
 1282.56513   86.81823    0.25215    2.34687
 1283.56713   62.05519    0.27119    2.31671
 1284.56914   87.78102    0.21504    2.39389
 1285.57114   62.14620    0.24146    2.37300
 1286.57315   65.05029    0.20783    2.40477
 1287.57515   91.66314    0.30580    2.26655
 1288.57715   67.26483    0.22375    2.37196
 1289.57916   64.25661    0.23361    2.37294
 1290.58116   62.80716    0.24898    2.34731
 1291.58317   57.79959    0.24407    2.33735
 1292.58517   54.24459    0.25775    2.32041
 1293.58717   65.07537    0.25653    2.35597
 1294.58918   74.40783    0.21059    2.41572
 1295.59118   76.43616    0.25553    2.33127
 1296.59319   46.56949    0.17110    2.45391
 1297.59519   85.85856    0.31404    2.23902
 1298.59719   96.10114    0.27372    2.31627
 1299.59920   63.35351    0.20891    2.40364
 1300.60120   81.34512    0.28079    2.35971
 1301.60321   64.75414    0.26407    2.34035
 1302.60521   60.14875    0.21476    2.41973
 1303.60721   51.53104    0.35626    2.20497
 1304.60922   72.72571    0.28732    2.31368
 1305.61122   91.60808    0.10491    2.52414
 1306.61323   75.58050    0.26059    2.34006
 1307.61523   75.18265    0.25350    2.33167
 1308.61723   92.45830    0.32010    2.28268
 1309.61924   67.85569    0.24844    2.32757
 1310.62124   62.02565    0.20322    2.40387
 1311.62325   84.88929    0.21147    2.37136
 1312.62525   98.18160    0.27902    2.32952
 1313.62725   53.05663    0.22383    2.36674
 1314.62926   72.80925    0.14655    2.47653
 1315.63126   72.80622    0.23035    2.33319
 1316.63327   97.62827    0.21048    2.41862
 1317.63527   97.01110    0.28133    2.32057
 1318.63727   89.73045    0.24800    2.40974
 1319.63928   82.55438    0.26021    2.38181
 1320.64128   80.10039    0.23017    2.37563
 1321.64329   71.50776    0.23730    2.33008
 1322.64529   92.92695    0.18829    2.43417
 1323.64729   88.71994    0.18411    2.43310
 1324.64930   65.50103    0.25081    2.36123
 1325.65130   57.03608    0.28035    2.30282
 1326.65331   68.94968    0.28868    2.32783
 1327.65531   89.71063    0.19925    2.39123
 1328.65731   85.86668    0.24392    2.37588
 1329.65932   86.45464    0.28320    2.33385
 1330.66132   76.13639    0.28082    2.30862
 1331.66333   87.14837    0.27280    2.33743
 1332.66533   80.43237    0.26876    2.30768
 1333.66733   96.87204    0.24880    2.32655
 1334.66934   86.93319    0.27683    2.29075
 1335.67134   81.55448    0.26879    2.36356
 1336.67335   58.45916    0.28788    2.32977
 1337.67535   73.18047    0.27148    2.30709
 1338.67735   70.93982    0.27920    2.30233
 1339.67936   51.73778    0.13666    2.49014
 1340.68136   89.14468    0.23496    2.33497
 1341.68337   89.71055    0.30075    2.25846
 1342.68537   58.55610    0.16666    2.44098
 1343.68737   76.19021    0.12927    2.52770
 1344.68938   73.80280    0.20944    2.39086
 1345.69138  104.40257    0.25767    2.33673
 1346.69339   78.42054    0.30580    2.26074
 1347.69539   88.22553    0.26668    2.33601
 1348.69739   68.83552    0.21992    2.37876
 1349.69940   63.14868    0.26724    2.31135
 1350.70140   78.66238    0.33697    2.24803
 1351.70341   86.53978    0.20308    2.39399
 1352.70541   66.82712    0.14327    2.47548
 1353.70741   69.46323    0.17915    2.44206
 1354.70942   69.08205    0.24869    2.33893
 1355.71142   64.66587    0.33409    2.24856
