~Version ---------------------------------------------------
VERS.   2.0 : CWLS log ASCII Standard -VERSION 2.0
WRAP.    NO : One line per depth step
DLM . SPACE : Column Data Section Delimiter
~Well ------------------------------------------------------
STRT.M 1000.00000 : START DEPTH
STOP.M 1500.00000 : STOP DEPTH
STEP.M    1.00200 : STEP
NULL.     -999.25 : NULL VALUE
COMP.             : COMPANY
WELL.    WELL-006 : WELL
FLD .             : FIELD
LOC .             : LOCATION
PROV.             : PROVINCE
CNTY.             : COUNTY
STAT.             : STATE
CTRY.             : COUNTRY
SRVC.             : SERVICE COMPANY
DATE.             : DATE
UWI .             : UNIQUE WELL ID
API .             : API NUMBER
~Curve Information -----------------------------------------
DEPT.M     : 
GR  .API   : Gamma Ray
NPHI.V/V   : Neutron Porosity
RHOB.G/C3  : Bulk Density
~Params ----------------------------------------------------
~Other -----------------------------------------------------
~ASCII -----------------------------------------------------
 1000.00000   77.43871    0.19087    2.40517
 1001.00200   92.56353    0.35863    2.21797
 1002.00401   83.62176    0.22840    2.36626
 1003.00601   60.30084    0.24680    2.34119
 1004.00802   95.50339    0.25114    2.34701
 1005.01002   74.92479    0.22861    2.34773
 1006.01202   85.78346    0.29867    2.32082
 1007.01403   67.20923    0.20489    2.38595
 1008.01603   61.28283    0.23456    2.36398
 1009.01804   68.84304    0.24913    2.37252
 1010.02004   86.75435    0.28066    2.29733
 1011.02204   70.96005    0.25710    2.36147
 1012.02405   73.09637    0.21830    2.37773
 1013.02605   84.79700    0.21609    2.42153
 1014.02806   91.37359    0.15546    2.46833
 1015.03006   54.92864    0.15675    2.44476
 1016.03206   70.01044    0.20666    2.41142
 1017.03407   56.50202    0.23209    2.36911
 1018.03607   97.11003    0.31737    2.25991
 1019.03808  116.22113    0.19006    2.38601
 1020.04008   74.67948    0.20347    2.39177
 1021.04208   57.64208    0.15444    2.47062
 1022.04409  100.13992    0.22687    2.36562
 1023.04609   99.00835    0.24275    2.31504
 1024.04810   77.78959    0.30948    2.27475
 1025.05010   94.57196    0.25734    2.35133
 1026.05210  104.84682    0.30991    2.28324
 1027.05411  102.08522    0.22098    2.39096
 1028.05611   72.91964    0.20608    2.41876
 1029.05812   41.33692    0.27650    2.31882
 1030.06012   69.85381    0.27599    2.34691
 1031.06212   66.69478    0.26945    2.34199
 1032.06413  109.27439    0.24995    2.39967
 1033.06613   71.67094    0.25540    2.35128
 1034.06814   73.29595    0.30058    2.26648
 1035.07014  108.24344    0.30709    2.28394
 1036.07214   60.48961    0.24262    2.34875
 1037.07415  108.24031    0.27361    2.28705
 1038.07615   72.29155    0.22794    2.37814
 1039.07816   82.64635    0.23204    2.39387
 1040.08016   86.11682    0.32029    2.23349
 1041.08216   68.20064    0.19739    2.42276
 1042.08417  103.65597    0.27084    2.33493
 1043.08617   73.71627    0.18796    2.41003
 1044.08818   90.07435    0.23409    2.38033
 1045.09018   98.09905    0.19789    2.43221
 1046.09218   65.94898    0.20604    2.38412
 1047.09419   85.64106    0.22228    2.39041
 1048.09619   90.25545    0.29932    2.27428
 1049.09820   46.55361    0.23635    2.37005
 1050.10020   80.99585    0.23414    2.37944
 1051.10220   64.91261    0.22733    2.37640
 1052.10421  109.50746    0.18191    2.44114
 1053.10621   82.36993    0.21135    2.44295
 1054.10822   84.09222    0.28880    2.30093
 1055.11022   57.29369    0.25832    2.31767
 1056.11222   86.94150    0.23433    2.33635
 1057.11423   97.98114    0.17803    2.46448
 1058.11623  102.00733    0.23884    2.33688
 1059.11824   51.13188    0.29497    2.28244
 1060.12024   73.68146    0.23926    2.36967
 1061.12224   60.67219    0.24791    2.37709
 1062.12425   70.66098    0.36653    2.22588
 1063.12625   88.75998    0.25132    2.31935
 1064.12826   64.42925    0.23118    2.34984
 1065.13026   53.36222    0.25896    2.32168
 1066.13226   60.73852    0.25139    2.35652
 1067.13427   74.98110    0.32560    2.26342
 1068.13627   64.27182    0.20068    2.39654
 1069.13828   58.08207    0.27236    2.31193
 1070.14028   56.18785    0.28864    2.31952
 1071.14228   63.71132    0.30079    2.26277
 1072.14429   48.38424    0.25082    2.36571
 1073.14629   78.84534    0.20438    2.38602
 1074.14830   62.46283    0.29730    2.27274
 1075.15030  106.14106    0.20789    2.39090
 1076.15230   87.15889    0.22821    2.34158
 1077.15431   56.68497    0.21260    2.40810
 1078.15631   83.46797    0.23028    2.35837
 1079.15832   58.07201    0.27696    2.31838
 1080.16032   62.54692    0.31449    2.30646
 1081.16232   78.87675    0.27705    2.30263
 1082.16433   71.76538    0.28680    2.26761
 1083.16633   50.51455    0.18142    2.44165
 1084.16834   76.26708    0.26448    2.30255
 1085.17034   76.80143    0.25517    2.32067
 1086.17234   73.80184    0.27547    2.30156
 1087.17435   86.17579    0.28497    2.32263
 1088.17635   44.05406    0.28047    2.32547
 1089.17836   75.52475    0.23193    2.34580
 1090.18036   65.06470    0.25509    2.30920
 1091.18236   21.31366    0.19806    2.41601
 1092.18437   66.93508    0.27225    2.34996
 1093.18637   57.91512    0.24206    2.35914
 1094.18838   62.36970    0.16561    2.48026
 1095.19038   53.68264    0.15200    2.43516
 1096.19238   38.71290    0.25735    2.34614
 1097.19439   54.72020    0.19385    2.43081
 1098.19639   43.66010    0.18111    2.41183
 1099.19840   53.45572    0.23412    2.34434
 1100.20040   58.07812    0.21148    2.40224
 1101.20240   58.32598    0.18145    2.42233
 1102.20441   83.79640    0.22399    2.39294
 1103.20641   27.21337    0.23712    2.38626
 1104.20842   46.39983    0.38227    2.17749
 1105.21042   61.30084    0.23028    2.38348
 1106.21242   57.48809    0.31365    2.24271
 1107.21443   49.43785    0.29041    2.28824
 1108.21643   39.43207    0.21730    2.38490
 1109.21844   78.33111    0.27748    2.35169
 1110.22044   55.31322    0.28960    2.33576
 1111.22244   59.19800    0.26392    2.31031
 1112.22445   38.32768    0.27785    2.27060
 1113.22645   93.43823    0.27366    2.25538
 1114.22846   75.15507    0.28970    2.32473
 1115.23046   55.65147    0.28507    2.32241
 1116.23246   54.27831    0.25342    2.34615
 1117.23447   38.36052    0.21477    2.40065
 1118.23647   61.66910    0.28294    2.28804
 1119.23848   42.77498    0.32963    2.25657
 1120.24048   55.18936    0.22842    2.37994
 1121.24248   67.61137    0.26699    2.30874
 1122.24449   52.10032    0.27217    2.31683
 1123.24649   63.50417    0.22494    2.39271
 1124.24850   60.54896    0.27713    2.32262
 1125.25050   36.49926    0.26144    2.31921
 1126.25251   77.35343    0.37911    2.19371
 1127.25451   44.49040    0.26676    2.34068
 1128.25651   72.31569    0.19436    2.46009
 1129.25852   36.99248    0.32957    2.28396
 1130.26052   28.94367    0.22999    2.36429
 1131.26253   45.33453    0.24923    2.35176
 1132.26453   65.70684    0.24389    2.36616
 1133.26653   45.93447    0.15689    2.47438
 1134.26854   64.03041    0.23975    2.36975
 1135.27054   67.53425    0.16964    2.48085
 1136.27255   43.70397    0.24570    2.34225
 1137.27455   56.77591    0.26439    2.34397
 1138.27655   44.96254    0.21407    2.40768
 1139.27856   43.29524    0.27200    2.32350
 1140.28056   28.83891    0.22369    2.40126
 1141.28257   68.22694    0.30276    2.28553
 1142.28457   40.10305    0.19991    2.42192
 1143.28657   33.78883    0.22200    2.35653
 1144.28858   46.62231    0.29393    2.29622
 1145.29058   51.35657    0.31208    2.25619
 1146.29259   25.82070    0.31055    2.25230
 1147.29459   26.61819    0.29652    2.30461
 1148.29659   58.20493    0.29254    2.27895
 1149.29860   41.11493    0.22531    2.37379
 1150.30060   53.52078    0.27442    2.30648
 1151.30261   40.44030    0.27964    2.30882
 1152.30461   39.21683    0.27453    2.33873
 1153.30661   62.09472    0.35844    2.22901
 1154.30862   63.28772    0.21183    2.42632
 1155.31062   52.47274    0.23321    2.36207
 1156.31263   32.44652    0.20041    2.40470
 1157.31463   46.30147    0.24479    2.34086
 1158.31663   47.71373    0.29757    2.26719
 1159.31864   48.99063    0.27451    2.29623
 1160.32064   62.27427    0.27923    2.31342
 1161.32265   49.44822    0.25855    2.34602
 1162.32465   51.30149    0.24700    2.33983
 1163.32665   22.42981    0.16778    2.46425
 1164.32866   44.95987    0.22245    2.38244
 1165.33066   47.02613    0.26496    2.33112
 1166.33267   55.40655    0.23234    2.35772
 1167.33467   52.84513    0.23519    2.37369
 1168.33667   40.61536    0.23386    2.41258
 1169.33868   34.84945    0.30112    2.25810
 1170.34068   50.87316    0.23994    2.36064
 1171.34269   26.14423    0.29119    2.29417
 1172.34469   40.41385    0.26432    2.33931
 1173.34669   49.09907    0.26875    2.34706
 1174.34870   51.62392    0.25162    2.34816
 1175.35070   38.86261    0.27827    2.30362
 1176.35271   55.92240    0.23658    2.40645
 1177.35471   41.09791    0.29063    2.28865
