~Version ---------------------------------------------------
VERS.   2.0 : CWLS log ASCII Standard -VERSION 2.0
WRAP.    NO : One line per depth step
DLM . SPACE : Column Data Section Delimiter
~Well ------------------------------------------------------
STRT.M 1000.00000 : START DEPTH
STOP.M 1500.00000 : STOP DEPTH
STEP.M    1.00200 : STEP
NULL.     -999.25 : NULL VALUE
COMP.             : COMPANY
WELL.    WELL-003 : WELL
FLD .             : FIELD
LOC .             : LOCATION
PROV.             : PROVINCE
CNTY.             : COUNTY
STAT.             : STATE
CTRY.             : COUNTRY
SRVC.             : SERVICE COMPANY
DATE.             : DATE
UWI .             : UNIQUE WELL ID
API .             : API NUMBER
~Curve Information -----------------------------------------
DEPT      .M     : 
G.R.      .API   : Gamma Ray
NPHI_V1   .V/V   : Neutron Porosity
RHOB_FINAL.G/C3  : Bulk Density
~Params ----------------------------------------------------
~Other -----------------------------------------------------
~ASCII -----------------------------------------------------
# ...
 1178.35671   46.32637    0.22217    2.38934
 1179.35872   30.08284    0.16186    2.44276
 1180.36072   45.85478    0.28457    2.29006
 1181.36273   20.05064    0.25545    2.31067
 1182.36473   41.54758    0.22382    2.36422
 1183.36673   24.52938    0.26194    2.34043
 1184.36874   57.96421    0.28021    2.31094
 1185.37074   26.87942    0.25343    2.36273
 1186.37275   70.56218    0.21995    2.38422
 1187.37475   44.44285    0.29083    2.31087
 1188.37675   -3.99494    0.28697    2.28694
 1189.37876   42.42573    0.19929    2.42851
 1190.38076   42.67194    0.21111    2.37553
 1191.38277   70.83488    0.28021    2.31027
 1192.38477   56.77297    0.30625    2.26728
 1193.38677   30.54924    0.24935    2.33084
 1194.38878   29.44047    0.26284    2.36151
 1195.39078   41.99703    0.24463    2.34382
 1196.39279   68.99755    0.30064    2.29863
 1197.39479   49.73315    0.36450    2.20489
 1198.39679   46.01608    0.29559    2.32238
 1199.39880   62.29578    0.25928    2.38113
 1200.40080   50.37782    0.23855    2.33923
 1201.40281   52.83258    0.29736    2.30907
 1202.40481   45.83554    0.24406    2.35906
 1203.40681   21.70180    0.27817    2.31842
 1204.40882   39.63221    0.25160    2.36940
 1205.41082   44.20918    0.21744    2.39260
 1206.41283   51.73379    0.33786    2.24521
 1207.41483   13.24179    0.26830    2.32458
 1208.41683   81.60372    0.24432    2.37377
 1209.41884   35.26092    0.18150    2.45063
 1210.42084   40.08470    0.25223    2.36060
 1211.42285   45.05076    0.26252    2.34503
 1212.42485   37.25255    0.31939    2.28759
 1213.42685   43.20022    0.18917    2.41998
 1214.42886   47.63554    0.27247    2.34887
 1215.43086   57.51478    0.32740    2.26848
 1216.43287   51.13518    0.33081    2.24441
 1217.43487   28.82044    0.33673    2.23306
 1218.43687   71.47448    0.28030    2.31125
 1219.43888   57.04355    0.27502    2.33200
 1220.44088   64.32812    0.25768    2.34183
 1221.44289   59.08893    0.23701    2.35918
 1222.44489   33.80179    0.19712    2.40476
 1223.44689   81.08279    0.27859    2.32110
 1224.44890   45.45209    0.21206    2.35478
 1225.45090   71.25400    0.29917    2.29866
 1226.45291   53.69561    0.27865    2.29066
 1227.45491   40.62820    0.18727    2.45490
 1228.45691   46.27892    0.20637    2.39337
 1229.45892   75.38975    0.24381    2.39828
 1230.46092   41.38180    0.29692    2.30911
 1231.46293   68.47090    0.20566    2.39635
 1232.46493   54.08519    0.29338    2.29827
 1233.46693   42.69317    0.22884    2.41274
 1234.46894   59.68213    0.28373    2.31383
 1235.47094   48.37565    0.19814    2.44974
 1236.47295   37.76062    0.26789    2.32813
 1237.47495   37.35435    0.27993    2.33908
 1238.47695   19.24483    0.24134    2.38133
 1239.47896   44.73917    0.18726    2.44972
 1240.48096   55.43902    0.25187    2.36171
 1241.48297   51.37800    0.27527    2.32648
 1242.48497   49.04932    0.25792    2.32428
 1243.48697   72.52783    0.20723    2.40277
 1244.48898   50.55484    0.27710    2.31075
 1245.49098   73.08608    0.22854    2.36169
 1246.49299   57.19756    0.21776    2.36881
 1247.49499   52.60820    0.16886    2.47164
 1248.49699   64.91179    0.26841    2.33478
 1249.49900   61.32558    0.18721    2.43272
 1250.50100   46.14566    0.23274    2.34847
 1251.50301   54.55608    0.34327    2.23795
 1252.50501   50.15050    0.18505    2.41039
 1253.50701   84.94043    0.26404    2.35426
 1254.50902   47.29714    0.23024    2.38695
 1255.51102   52.99944    0.16084    2.47604
 1256.51303   47.47716    0.22847    2.39828
 1257.51503   68.51684    0.26229    2.35042
 1258.51703   44.17594    0.31486    2.27372
 1259.51904   74.56918    0.29622    2.27467
 1260.52104   69.55419    0.14787    2.46538
 1261.52305   54.47480    0.15603    2.48498
 1262.52505   59.21854    0.25792    2.31796
 1263.52705   68.59111    0.21033    2.40459
 1264.52906   60.66796    0.33083    2.23749
 1265.53106   35.86455    0.22268    2.39188
 1266.53307   81.94719    0.27687    2.33682
 1267.53507   52.93659    0.23370    2.37086
 1268.53707   92.43738    0.24899    2.36994
 1269.53908   92.64891    0.23084    2.41236
 1270.54108   83.25636    0.25005    2.35340
 1271.54309   69.91171    0.26134    2.35122
 1272.54509   69.53794    0.24132    2.36004
 1273.54709   46.01524    0.24990    2.32616
 1274.54910   69.10095    0.28332    2.29091
 1275.55110   61.77340    0.30075    2.29156
 1276.55311   76.43703    0.28920    2.30544
 1277.55511   76.78475    0.30773    2.26209
 1278.55711   64.70390    0.19433    2.35363
 1279.55912   60.57075    0.24530    2.37548
 1280.56112   84.28429    0.23883    2.38277
 1281.56313   53.56073    0.35284    2.21088
 1282.56513   76.63354    0.32154    2.25588
 1283.56713   57.44480    0.26848    2.31129
 1284.56914   70.16237    0.17860    2.41456
 1285.57114   63.49824    0.16832    2.44927
 1286.57315   57.63360    0.27757    2.30275
 1287.57515   50.89060    0.26383    2.32493
 1288.57715   51.55698    0.17950    2.43280
 1289.57916   73.15495    0.25133    2.36228
 1290.58116   91.12321    0.18523    2.44782
 1291.58317   63.23388    0.15255    2.47084
 1292.58517   60.20912    0.24477    2.32387
 1293.58717   77.53161    0.26894    2.34393
 1294.58918   48.52427    0.24714    2.36173
 1295.59118   40.71162    0.27212    2.33224
 1296.59319   61.82167    0.24592    2.34056
 1297.59519   59.60346    0.24740    2.36298
 1298.59719   66.05750    0.17292    2.43436
 1299.59920   67.30830    0.20677    2.38775
 1300.60120   39.13648    0.21454    2.42174
 1301.60321   85.38253    0.33474    2.21585
 1302.60521   90.12388    0.26913    2.30740
 1303.60721   93.39587    0.18977    2.40661
 1304.60922   66.90774    0.30249    2.29794
 1305.61122   75.99504    0.24793    2.36754
 1306.61323   76.59486    0.25446    2.36867
 1307.61523   83.23478    0.27865    2.31388
 1308.61723   96.86439    0.28804    2.27354
 1309.61924   63.35968    0.30356    2.31352
 1310.62124   74.50087    0.28645    2.31270
 1311.62325   50.74799    0.31983    2.25692
 1312.62525   92.57391    0.26124    2.33435
 1313.62725   73.70129    0.34405    2.24411
 1314.62926   69.90510    0.19762    2.41437
 1315.63126   74.75208    0.15343    2.44453
 1316.63327   74.88161    0.24004    2.36700
 1317.63527   91.03789    0.19320    2.44014
 1318.63727   81.07716    0.34517    2.23748
 1319.63928   88.77901    0.26776    2.34245
 1320.64128   64.75240    0.25456    2.33943
 1321.64329   73.51835    0.21391    2.37676
 1322.64529   70.78278    0.18582    2.45469
 1323.64729   66.01743    0.24683    2.39890
 1324.64930   88.45490    0.18934    2.43084
 1325.65130   95.46189    0.33420    2.26105
 1326.65331   96.22271    0.30641    2.30110
 1327.65531   78.95039    0.30487    2.27248
 1328.65731   75.69523    0.25290    2.34194
 1329.65932   77.22653    0.30382    2.32642
 1330.66132   99.41569    0.24764    2.39758
 1331.66333   98.31037    0.33044    2.28994
 1332.66533   91.47650    0.25103    2.36019
 1333.66733   97.58317    0.24886    2.34122
 1334.66934  118.08340    0.25552    2.32877
 1335.67134   81.44722    0.12683    2.50680
 1336.67335   69.28128    0.21334    2.39510
 1337.67535   90.24657    0.32875    2.26935
 1338.67735   61.48376    0.23368    2.38979
 1339.67936   89.32304    0.27951    2.32203
 1340.68136   71.51075    0.23717    2.37538
 1341.68337   45.43608    0.29354    2.31397
 1342.68537   72.18512    0.20262    2.38075
 1343.68737   82.57894    0.27901    2.32700
 1344.68938   70.58926    0.29944    2.28751
 1345.69138   73.71052    0.31375    2.30811
 1346.69339   85.05478    0.31322    2.27154
 1347.69539   69.99315    0.29447    2.33914
 1348.69739  108.66070    0.21311    2.41673
 1349.69940   78.30993    0.23898    2.36718
 1350.70140   92.52692    0.27651    2.30244
 1351.70341   82.07749    0.21928    2.35103
 1352.70541   87.31624    0.21561    2.37463
 1353.70741   48.20214    0.23591    2.36416
 1354.70942   83.72676    0.23905    2.37673
 1355.71142   68.01957    0.20707    2.41316
