~Version ---------------------------------------------------
VERS.   2.0 : CWLS log ASCII Standard -VERSION 2.0
WRAP.    NO : One line per depth step
DLM . SPACE : Column Data Section Delimiter
~Well ------------------------------------------------------
STRT.M 1000.00000 : START DEPTH
STOP.M 1500.00000 : STOP DEPTH
STEP.M    1.00200 : STEP
NULL.     -999.25 : NULL VALUE
COMP.             : COMPANY
WELL.    WELL-005 : WELL
FLD .             : FIELD
LOC .             : LOCATION
PROV.             : PROVINCE
CNTY.             : COUNTY
STAT.             : STATE
CTRY.             : COUNTRY
SRVC.             : SERVICE COMPANY
DATE.             : DATE
UWI .             : UNIQUE WELL ID
API .             : API NUMBER
~Curve Information -----------------------------------------
DEPT     .M     : 
GAMMA_RAY.API   : Gamma Ray
NPHI     .V/V   : Neutron Porosity
RHOB     .G/C3  : Bulk Density
~Params ----------------------------------------------------
~Other -----------------------------------------------------
~ASCII -----------------------------------------------------
 1000.00000   73.99328    0.17750    2.45435
 1001.00200   77.65710    0.23169    2.39389
 1002.00401   73.75266    0.16474    2.47746
 1003.00601   66.42127    0.31897    2.31697
 1004.00802   51.54551    0.31540    2.30368
 1005.01002   70.91661    0.27242    2.29959
 1006.01202   86.38011    0.17124    2.44516
 1007.01403  110.98819    0.28055    2.32475
 1008.01603   86.79212    0.21463    2.41171
 1009.01804   67.06808    0.20469    2.38102
 1010.02004   53.99355    0.23089    2.33713
 1011.02204   55.84664    0.27359    2.32740
 1012.02405   70.30054    0.27806    2.31339
 1013.02605   66.50889    0.32106    2.24857
 1014.02806  103.02010    0.31838    2.26438
 1015.03006   74.33232    0.29729    2.31404
 1016.03206   84.44484    0.27306    2.28700
 1017.03407   82.76316    0.24900    2.35284
 1018.03607   48.40715    0.25722    2.30872
 1019.03808   72.11239    0.32261    2.23477
 1020.04008   60.26263    0.28441    2.29908
 1021.04208   56.59922    0.21414    2.39596
 1022.04409   68.90032    0.24183    2.32024
 1023.04609  107.88708    0.14657    2.46207
 1024.04810   98.14392    0.35360    2.23085
 1025.05010   74.91529    0.22349    2.38812
 1026.05210   82.41242    0.30525    2.27318
 1027.05411   84.65504    0.30368    2.27698
 1028.05611   93.88530    0.23456    2.40385
 1029.05812   84.57044    0.26230    2.34017
 1030.06012   66.80865    0.20909    2.37905
 1031.06212   79.91892    0.27539    2.33971
 1032.06413   96.44426    0.28625    2.30097
 1033.06613   81.77599    0.27528    2.34422
 1034.06814   83.82954    0.29131    2.31002
 1035.07014   91.11042    0.24355    2.38463
 1036.07214   74.10684    0.27148    2.31860
 1037.07415   72.32494    0.23782    2.35561
 1038.07615   62.78591    0.21488    2.37248
 1039.07816   66.81661    0.24214    2.32852
 1040.08016   89.90707    0.18911    2.39713
 1041.08216   90.17205    0.23881    2.38079
 1042.08417   83.85717    0.23414    2.38983
 1043.08617   80.55684    0.22521    2.37352
 1044.08818   78.94752    0.22616    2.37848
 1045.09018   54.65682    0.25416    2.35847
 1046.09218   43.94631    0.34248    2.25287
 1047.09419   75.71659    0.20307    2.41758
 1048.09619   58.87910    0.24395    2.35252
 1049.09820   69.82995    0.25493    2.34950
 1050.10020   93.15067    0.25947    2.35559
 1051.10220   62.03602    0.25015    2.33142
 1052.10421   65.80082    0.21524    2.42098
 1053.10621   64.05592    0.29970    2.28853
 1054.10822   93.27376    0.22061    2.37614
 1055.11022   61.78158    0.24401    2.35565
 1056.11222   58.16508    0.23369    2.42880
 1057.11423   66.90241    0.28118    2.34763
 1058.11623   47.75062    0.15714    2.47470
 1059.11824   90.12666    0.26316    2.38314
 1060.12024   53.25312    0.23617    2.37534
 1061.12224   91.92391    0.20752    2.41694
 1062.12425   72.43351    0.30809    2.29643
 1063.12625   73.82222    0.18965    2.45050
 1064.12826   56.93779    0.25992    2.34050
 1065.13026   72.68189    0.24306    2.33553
 1066.13226   91.35899    0.24793    2.34148
 1067.13427   66.95346    0.27376    2.32045
 1068.13627   73.06492    0.25129    2.32497
 1069.13828   40.44399    0.27960    2.33254
 1070.14028   61.61556    0.26661    2.32679
 1071.14228   66.96470    0.22561    2.35808
 1072.14429   71.13226    0.12226    2.47908
 1073.14629   63.29202    0.20322    2.44065
 1074.14830   48.87704    0.25152    2.37439
 1075.15030   51.93119    0.42215    2.13715
 1076.15230   38.35440    0.29319    2.31168
 1077.15431   35.16078    0.19247    2.39254
 1078.15631   68.21119    0.29126    2.31393
 1079.15832   36.59168    0.25999    2.33776
 1080.16032   43.06125    0.33181    2.25617
 1081.16232   84.67405    0.27120    2.35158
 1082.16433   65.55077    0.31465    2.26723
 1083.16633   67.81552    0.29108    2.28193
 1084.16834   50.47578    0.22395    2.39813
 1085.17034   79.05093    0.22300    2.40737
 1086.17234   85.46739    0.26931    2.31291
 1087.17435   80.03561    0.28523    2.31157
 1088.17635   79.50866    0.24061    2.35104
 1089.17836   60.85843    0.23851    2.36022
 1090.18036   53.45001    0.24028    2.36432
 1091.18236   72.43073    0.24100    2.37043
 1092.18437   24.37427    0.37872    2.20307
 1093.18637   55.70731    0.18893    2.42520
 1094.18838   83.52806    0.21024    2.39066
 1095.19038   65.70449    0.30966    2.25555
 1096.19238   81.97568    0.26221    2.34537
 1097.19439   48.03508    0.26068    2.33267
 1098.19639   55.78470    0.30567    2.28938
 1099.19840   50.42119    0.31199    2.28612
 1100.20040   71.14045    0.18330    2.44299
 1101.20240   69.06750    0.24852    2.33113
 1102.20441   63.17742    0.16407    2.43433
 1103.20641   19.73553    0.25465    2.36919
 1104.20842   55.44234    0.22866    2.38275
 1105.21042   49.39920    0.18342    2.43205
 1106.21242   45.14570    0.22542    2.35671
 1107.21443   70.71682    0.27641    2.28698
 1108.21643   39.92932    0.28741    2.28779
 1109.21844   49.40711    0.21259    2.36792
 1110.22044   80.67515    0.24399    2.35665
 1111.22244   70.59862    0.23026    2.35617
 1112.22445   52.53072    0.25354    2.34828
 1113.22645   66.39390    0.30908    2.28444
 1114.22846   68.09728    0.19782    2.41409
 1115.23046   58.25394    0.27573    2.30639
 1116.23246   71.17925    0.20084    2.39577
 1117.23447   71.55794    0.31581    2.29117
 1118.23647   42.98700    0.28010    2.32037
 1119.23848   37.74751    0.35790    2.19326
 1120.24048   30.51472    0.25807    2.31259
 1121.24248   45.23631    0.24499    2.36040
 1122.24449   36.65164    0.35962    2.20559
 1123.24649   47.44613    0.19232    2.43132
 1124.24850   49.63829    0.28289    2.29169
 1125.25050   40.61323    0.21917    2.37604
 1126.25251   21.83533    0.29368    2.28949
 1127.25451   30.74834    0.24494    2.36630
 1128.25651   62.60415    0.24589    2.35367
 1129.25852   49.63923    0.31547    2.26366
 1130.26052   28.76699    0.25550    2.31552
 1131.26253   42.35660    0.24290    2.36128
 1132.26453   44.20733    0.17496    2.44465
 1133.26653   45.70692    0.28161    2.32892
 1134.26854   62.55239    0.25827    2.34327
 1135.27054   42.16731    0.22771    2.37844
 1136.27255   69.77130    0.22522    2.37685
 1137.27455   51.91103    0.20824    2.38724
 1138.27655   32.39780    0.31319    2.27882
 1139.27856   38.20890    0.25220    2.35905
 1140.28056   79.12913    0.36100    2.22308
 1141.28257   65.32764    0.23783    2.39183
 1142.28457   29.43628    0.27060    2.28270
 1143.28657   17.29348    0.20399    2.39200
 1144.28858   44.13755    0.26687    2.35029
 1145.29058   36.93006    0.33512    2.23016
 1146.29259   48.87247    0.16518    2.47814
 1147.29459   68.25799    0.26548    2.35374
 1148.29659   46.52477    0.13637    2.46963
 1149.29860   47.36477    0.31455    2.27580
 1150.30060   60.83502    0.20244    2.38703
 1151.30261   51.92569    0.25925    2.37689
 1152.30461   61.70414    0.20629    2.40626
 1153.30661   60.47957    0.24403    2.35198
 1154.30862   48.29101    0.28430    2.33409
 1155.31062   60.04645    0.20352    2.40925
 1156.31263   59.70614    0.23355    2.39429
 1157.31463   14.54688    0.15378    2.45910
 1158.31663   30.09995    0.34812    2.26149
 1159.31864   33.24742    0.24186    2.38713
 1160.32064   40.05369    0.22690    2.39578
 1161.32265   45.17727    0.18004    2.40632
 1162.32465   20.56098    0.25857    2.33245
 1163.32665   45.49328    0.19935    2.41139
 1164.32866   18.11175    0.30230    2.25176
 1165.33066   36.50531    0.33713    2.24219
 1166.33267   41.61905    0.26148    2.32856
 1167.33467   36.20186    0.30145    2.27153
 1168.33667   59.98092    0.31541    2.27538
 1169.33868   49.85550    0.24555    2.34474
 1170.34068   27.71669    0.23077    2.37792
 1171.34269   20.68539    0.26894    2.33271
 1172.34469   12.45302    0.21815    2.39473
 1173.34669   67.47882    0.22876    2.38672
 1174.34870   35.33287    0.22076    2.38354
 1175.35070   55.04368    0.25484    2.39029
 1176.35271   40.44146    0.20263    2.37922
 1177.35471   29.73614    0.25254    2.32211
