~Version ---------------------------------------------------
VERS.   2.0 : CWLS log ASCII Standard -VERSION 2.0
WRAP.    NO : One line per depth step
DLM . SPACE : Column Data Section Delimiter
~Well ------------------------------------------------------
STRT.M 1000.00000 : START DEPTH
STOP.M 1500.00000 : STOP DEPTH
STEP.M    1.00200 : STEP
NULL.     -999.25 : NULL VALUE
COMP.             : COMPANY
WELL.    WELL-007 : WELL
FLD .             : FIELD
LOC .             : LOCATION
PROV.             : PROVINCE
CNTY.             : COUNTY
STAT.             : STATE
CTRY.             : COUNTRY
SRVC.             : SERVICE COMPANY
DATE.             : DATE
UWI .             : UNIQUE WELL ID
API .             : API NUMBER
~Curve Information -----------------------------------------
DEPT.M     : 
GR  .API   : Gamma Ray
NPHI.V/V   : Neutron Porosity
RHOB.G/C3  : Bulk Density
~Params ----------------------------------------------------
~Other -----------------------------------------------------
~ASCII -----------------------------------------------------
 1000.00000   77.64785    0.25800    2.34512
 1001.00200   82.99420    0.31789    2.25691
 1002.00401   90.75081    0.28694    2.28343
 1003.00601   63.03670    0.34193    2.23244
 1004.00802   98.18224    0.28348    2.27831
 1005.01002  102.21805    0.26571    2.32630
 1006.01202   78.41003    0.23777    2.38146
 1007.01403   95.15531    0.30454    2.29082
 1008.01603   74.82286    0.25682    2.37465
 1009.01804   92.93128    0.25225    2.36530
 1010.02004   85.99217    0.20556    2.42001
 1011.02204  103.38834    0.18620    2.45221
 1012.02405   69.85043    0.21331    2.37541
 1013.02605   59.53634    0.23028    2.34196
 1014.02806   82.33860    0.21263    2.40412
 1015.03006   70.09644    0.27328    2.34353
 1016.03206   51.04028    0.19782    2.43377
 1017.03407   85.13639    0.32127    2.23246
 1018.03607   85.16325    0.23036    2.35469
 1019.03808  127.90165    0.35919    2.20567
 1020.04008   88.52866    0.38806    2.15367
 1021.04208   87.57213    0.34799    2.22283
 1022.04409   83.98236    0.32811    2.25084
 1023.04609   82.85337    0.19754    2.40654
 1024.04810   94.41143    0.30886    2.29430
 1025.05010  111.36207    0.23472    2.37124
 1026.05210   83.92546    0.29698    2.26920
 1027.05411   57.98649    0.18329    2.48942
 1028.05611   79.48099    0.15879    2.44094
 1029.05812  106.04664    0.33848    2.25903
 1030.06012   65.25766    0.19591    2.38870
 1031.06212   82.52993    0.20010    2.43584
 1032.06413   65.59882    0.20337    2.40539
 1033.06613  126.89260    0.28086    2.29411
 1034.06814   64.45890    0.36858    2.19875
 1035.07014  105.17921    0.25713    2.35229
 1036.07214   65.64145    0.22497    2.39127
 1037.07415   91.85300    0.26001    2.31420
 1038.07615  121.49057    0.15500    2.44900
 1039.07816   85.44020    0.28974    2.31506
 1040.08016   95.43274    0.28914    2.32084
 1041.08216   76.72463    0.26313    2.32076
 1042.08417   89.69070    0.26563    2.37149
 1043.08617   69.87933    0.19607    2.41888
 1044.08818   70.68981    0.29086    2.30838
 1045.09018   80.48511    0.21433    2.39086
 1046.09218   87.39531    0.16138    2.46899
 1047.09419   51.69422    0.25157    2.32835
 1048.09619   83.47249    0.21711    2.43993
 1049.09820   63.17438    0.30155    2.29802
 1050.10020 -999.25000    0.16953    2.42201
 1051.10220 -999.25000    0.20848    2.38658
 1052.10421 -999.25000    0.24322    2.38797
 1053.10621 -999.25000    0.22684    2.40448
 1054.10822 -999.25000    0.29910    2.27443
 1055.11022 -999.25000    0.29684    2.29141
 1056.11222 -999.25000    0.20845    2.41398
 1057.11423 -999.25000    0.21168    2.39367
 1058.11623 -999.25000    0.25510    2.33872
 1059.11824 -999.25000    0.23028    2.36037
 1060.12024 -999.25000    0.22759    2.36014
 1061.12224 -999.25000    0.28290    2.32006
 1062.12425 -999.25000    0.28485    2.31774
 1063.12625 -999.25000    0.28592    2.30879
 1064.12826 -999.25000    0.21187    2.39044
 1065.13026 -999.25000    0.22241    2.40748
 1066.13226 -999.25000    0.26763    2.31003
 1067.13427 -999.25000    0.20344    2.42064
 1068.13627 -999.25000    0.26594    2.31467
 1069.13828 -999.25000    0.20165    2.43248
 1070.14028 -999.25000    0.29581    2.30236
 1071.14228 -999.25000    0.20928    2.43137
 1072.14429 -999.25000    0.22437    2.34607
 1073.14629 -999.25000    0.19415    2.43053
 1074.14830 -999.25000    0.23868    2.37454
 1075.15030 -999.25000    0.20793    2.42556
 1076.15230 -999.25000    0.26594    2.35043
 1077.15431 -999.25000    0.29976    2.28700
 1078.15631 -999.25000    0.26585    2.32273
 1079.15832 -999.25000    0.27801    2.29495
 1080.16032 -999.25000    0.23369    2.37589
 1081.16232 -999.25000    0.18046    2.44318
 1082.16433 -999.25000    0.22375    2.38237
 1083.16633 -999.25000    0.26021    2.33724
 1084.16834 -999.25000    0.24789    2.39893
 1085.17034 -999.25000    0.26210    2.34825
 1086.17234 -999.25000    0.23936    2.35444
 1087.17435 -999.25000    0.21609    2.39535
 1088.17635 -999.25000    0.25557    2.34774
 1089.17836 -999.25000    0.37420    2.21095
 1090.18036 -999.25000    0.22105    2.38135
 1091.18236 -999.25000    0.32725    2.27409
 1092.18437 -999.25000    0.27855    2.32568
 1093.18637 -999.25000    0.25494    2.32203
 1094.18838 -999.25000    0.32932    2.27215
 1095.19038 -999.25000    0.25347    2.35405
 1096.19238 -999.25000    0.19800    2.37443
 1097.19439 -999.25000    0.16412    2.44277
 1098.19639 -999.25000    0.20927    2.39460
 1099.19840 -999.25000    0.17113    2.40219
 1100.20040   74.74224    0.31167    2.25400
 1101.20240   63.99860    0.24602    2.34801
 1102.20441   72.75332    0.24771    2.35137
 1103.20641   73.01554    0.25148    2.37477
 1104.20842   60.23457    0.25566    2.35093
 1105.21042   43.32854    0.22700    2.40522
 1106.21242   54.71986    0.14935    2.48030
 1107.21443   73.91449    0.22141    2.38587
 1108.21643   48.07012    0.21173    2.40171
 1109.21844   50.91662    0.24170    2.36125
 1110.22044   38.48280    0.22522    2.38555
 1111.22244   61.70440    0.24834    2.33614
 1112.22445   64.68176    0.28338    2.31289
 1113.22645   71.67701    0.21468    2.41096
 1114.22846   68.73236    0.19578    2.40871
 1115.23046   48.07574    0.21682    2.39854
 1116.23246   72.71277    0.30949    2.30437
 1117.23447   44.94585    0.24102    2.37046
 1118.23647   38.96334    0.22285    2.40079
 1119.23848   72.95029    0.17062    2.45329
 1120.24048   72.57104    0.29075    2.30023
 1121.24248   49.42066    0.27518    2.34428
 1122.24449   29.15156    0.30352    2.30681
 1123.24649   61.94505    0.22816    2.39814
 1124.24850   48.08584    0.16094    2.46583
 1125.25050   43.13372    0.12218    2.51218
 1126.25251   77.17414    0.22242    2.39879
 1127.25451   18.48943    0.28649    2.27391
 1128.25651   40.95684    0.29681    2.28649
 1129.25852    0.41907    0.14221    2.47656
 1130.26052   62.80079    0.26985    2.31873
 1131.26253   50.39965    0.24702    2.35817
 1132.26453   55.72641    0.20186    2.39943
 1133.26653   28.02668    0.28343    2.28803
 1134.26854   59.16345    0.16718    2.42139
 1135.27054   74.34602    0.39124    2.21299
 1136.27255   39.87192    0.23789    2.34998
 1137.27455   53.81672    0.23137    2.36137
 1138.27655   64.13235    0.20308    2.39343
 1139.27856   39.03073    0.31352    2.24663
 1140.28056   25.79663    0.29731    2.34082
 1141.28257   43.80020    0.20403    2.37330
 1142.28457   40.53496    0.27669    2.31005
 1143.28657   25.87017    0.36046    2.23640
 1144.28858   22.05756    0.27557    2.30311
 1145.29058   38.31152    0.27409    2.31734
 1146.29259   43.51697    0.27709    2.33745
 1147.29459   56.08265    0.14719    2.48287
 1148.29659   42.62727    0.31477    2.27818
 1149.29860   63.70306    0.26193    2.33748
 1150.30060   50.68037    0.25075    2.34740
 1151.30261   44.04326    0.20854    2.44767
 1152.30461   59.42700    0.35878    2.24280
 1153.30661   44.69773    0.28300    2.33627
 1154.30862   35.38679    0.27734    2.35176
 1155.31062   43.33169    0.20687    2.39544
 1156.31263   13.43728    0.24835    2.36108
 1157.31463   75.87130    0.22088    2.37504
 1158.31663   48.20157    0.28908    2.31363
 1159.31864   16.57343    0.25346    2.33124
 1160.32064   35.79358    0.18364    2.45145
 1161.32265   47.71839    0.36598    2.20139
 1162.32465   38.51090    0.29624    2.29363
 1163.32665   48.29850    0.24957    2.33617
 1164.32866   16.50752    0.25534    2.36638
 1165.33066   13.12590    0.20650    2.38555
 1166.33267   39.39357    0.27914    2.29858
 1167.33467   40.39887    0.30165    2.29625
 1168.33667   50.04171    0.24514    2.30785
 1169.33868   48.88114    0.24603    2.35668
 1170.34068   46.83812    0.29846    2.29113
 1171.34269   31.22107    0.23881    2.39963
 1172.34469   36.35801    0.28260    2.29252
 1173.34669   17.25963    0.28665    2.33343
 1174.34870   75.28161    0.17219    2.44129
 1175.35070   16.85882    0.19092    2.45486
 1176.35271   45.55163    0.22802    2.37217
 1177.35471   41.07864    0.26195    2.34151
