~Version ---------------------------------------------------
VERS.   2.0 : CWLS log ASCII Standard -VERSION 2.0
WRAP.    NO : One line per depth step
DLM . SPACE : Column Data Section Delimiter
~Well ------------------------------------------------------
STRT.M 1000.00000 : START DEPTH
STOP.M 1500.00000 : STOP DEPTH
STEP.M    1.00200 : STEP
NULL.     -999.25 : NULL VALUE
COMP.             : COMPANY
WELL.    WELL-008 : WELL
FLD .             : FIELD
LOC .             : LOCATION
PROV.             : PROVINCE
CNTY.             : COUNTY
STAT.             : STATE
CTRY.             : COUNTRY
SRVC.             : SERVICE COMPANY
DATE.             : DATE
UWI .             : UNIQUE WELL ID
API .             : API NUMBER
~Curve Information -----------------------------------------
DEPT.M     : 
G.R..API   : Gamma Ray
NPHI.V/V   : Neutron Porosity
RHOB.G/C3  : Bulk Density
~Params ----------------------------------------------------
~Other -----------------------------------------------------
~ASCII -----------------------------------------------------
 1000.00000   84.32526    0.26752    2.33412
 1001.00200   75.87554    0.20481    2.40808
 1002.00401   74.94525    0.25915    2.32327
 1003.00601  108.92822    0.27471    2.31073
 1004.00802   63.22053    0.31765    2.28321
 1005.01002   77.98225    0.25235    2.34311
 1006.01202   84.95549    0.26750    2.35403
 1007.01403   86.37402    0.25192    2.35538
 1008.01603   90.44121    0.30565    2.28321
 1009.01804   61.47865    0.29086    2.32871
 1010.02004   70.84963    0.31528    2.27428
 1011.02204   95.46627    0.23757    2.35259
 1012.02405   58.34670    0.28660    2.26411
 1013.02605  101.61864    0.19288    2.42056
 1014.02806   71.26010    0.21902    2.38008
 1015.03006   83.59927    0.26057    2.33098
 1016.03206   60.02177    0.29905    2.28235
 1017.03407   60.47766    0.21105    2.39553
 1018.03607   82.75397    0.21693    2.38342
 1019.03808   89.14668    0.12880    2.52709
 1020.04008   71.87539    0.20018    2.40078
 1021.04208   76.89370    0.22185    2.37235
 1022.04409  103.13493    0.28581    2.31178
 1023.04609   95.61293    0.20033    2.42255
 1024.04810   85.34346    0.16461    2.47086
 1025.05010   64.93393    0.24827    2.37568
 1026.05210   79.37202    0.20161    2.41896
 1027.05411   70.25913    0.23968    2.35118
 1028.05611   69.81271    0.33511    2.24867
 1029.05812   65.08886    0.23994    2.35055
 1030.06012   64.46619    0.31920    2.25639
 1031.06212   92.19135    0.26152    2.35370
 1032.06413   82.28611    0.26616    2.33771
 1033.06613   70.93178    0.28160    2.35631
 1034.06814  102.67109    0.21212    2.43171
 1035.07014   90.89952    0.24078    2.35634
 1036.07214   84.78413    0.23256    2.39330
 1037.07415   74.66572    0.21916    2.41776
 1038.07615   88.91252    0.24113    2.35851
 1039.07816   95.02742    0.20005    2.37957
 1040.08016   68.85669    0.20446    2.42325
 1041.08216   87.60666    0.20879    2.38659
 1042.08417   64.78361    0.16589    2.44909
 1043.08617  104.63378    0.24516    2.35444
 1044.08818   91.03686    0.20625    2.42882
 1045.09018   77.85798    0.28370    2.29612
 1046.09218   39.68804    0.16956    2.42640
 1047.09419  111.55003    0.26567    2.31193
 1048.09619   67.04259    0.33013    2.24944
 1049.09820   68.45834    0.24919    2.34861
 1050.10020   82.84206    0.27678    2.33398
 1051.10220   90.17912    0.23672    2.37657
 1052.10421   90.48452    0.26933    2.32758
 1053.10621   60.50235    0.25115    2.36164
 1054.10822   80.99332    0.30025    2.28638
 1055.11022   85.21563    0.19992    2.40897
 1056.11222   65.99457    0.17721    2.41664
 1057.11423  105.31267    0.27078    2.33109
 1058.11623   79.63049    0.23905    2.37214
 1059.11824   57.10509    0.28845    2.29498
 1060.12024   69.21536    0.27506    2.29412
 1061.12224   81.96569    0.17267    2.44743
 1062.12425   57.86629    0.28532    2.31350
 1063.12625   71.42196    0.25523    2.35918
 1064.12826   45.40793    0.22347    2.34686
 1065.13026   84.47875    0.21760    2.38414
 1066.13226  111.01003    0.22672    2.37862
 1067.13427   72.79492    0.27566    2.33063
 1068.13627   82.04730    0.15501    2.47899
 1069.13828   88.21405    0.24868    2.35043
 1070.14028   83.94939    0.21860    2.39113
 1071.14228   75.38152    0.23674    2.37531
 1072.14429   71.91702    0.25589    2.33941
 1073.14629   83.09647    0.20748    2.40082
 1074.14830   59.32232    0.27292    2.30761
 1075.15030   57.94272    0.27882    2.30244
 1076.15230   92.70057    0.22665    2.37629
 1077.15431   78.29316    0.25622    2.37049
 1078.15631   60.53859    0.23720    2.34841
 1079.15832   60.74715    0.16770    2.46628
 1080.16032   40.09687    0.09324    2.52851
 1081.16232   59.85524    0.13071    2.51248
 1082.16433   46.01353    0.30730    2.28669
 1083.16633   66.36173    0.27041    2.31867
 1084.16834   63.08930    0.27873    2.34971
 1085.17034   69.37645    0.27329    2.31331
 1086.17234   79.06483    0.24929    2.36465
 1087.17435   62.63954    0.27035    2.27466
 1088.17635   74.35978    0.17586    2.43426
 1089.17836   55.72924    0.27538    2.32755
 1090.18036   64.63995    0.23254    2.38322
 1091.18236   55.38817    0.24089    2.36933
 1092.18437   43.90621    0.11897    2.48644
 1093.18637   52.48730    0.23738    2.38404
 1094.18838   48.34435    0.24615    2.35709
 1095.19038   63.32499    0.19351    2.41025
 1096.19238   23.70896    0.25797    2.38430
 1097.19439   63.47583    0.33587    2.25257
 1098.19639   70.19280    0.25718    2.31468
 1099.19840   53.98985    0.25446    2.33557
 1100.20040   39.84597    0.24339    2.38139
 1101.20240   68.25335    0.30425    2.29358
 1102.20441   72.55763    0.30952    2.28574
 1103.20641   77.72811    0.16296    2.49596
 1104.20842   80.78365    0.22987    2.38682
 1105.21042   70.97569    0.37118    2.21491
 1106.21242   89.73532    0.22227    2.38403
 1107.21443   41.08799    0.30433    2.28991
 1108.21643   28.45911    0.19252    2.39911
 1109.21844   52.57031    0.24784    2.34726
 1110.22044   31.32706    0.15771    2.42535
 1111.22244   41.62094    0.22228    2.40398
 1112.22445   71.46170    0.28687    2.31000
 1113.22645   70.20227    0.26467    2.37029
 1114.22846   54.94733    0.29102    2.27218
 1115.23046   40.85077    0.20080    2.40305
 1116.23246   55.64841    0.29799    2.28590
 1117.23447   43.70372    0.28477    2.29861
 1118.23647   27.83583    0.21263    2.37190
 1119.23848   74.18979    0.28021    2.28401
 1120.24048   45.12818    0.29521    2.31196
 1121.24248   73.56276    0.28055    2.33813
 1122.24449   16.39231    0.30575    2.28730
 1123.24649   43.15258    0.21621    2.39196
 1124.24850   54.77932    0.20418    2.37408
 1125.25050   65.71838    0.35292    2.23944
 1126.25251   42.69312    0.25001    2.33129
 1127.25451   41.88829    0.29315    2.30351
 1128.25651   38.18591    0.26952    2.31207
 1129.25852   45.60997    0.21904    2.39112
 1130.26052   41.33267    0.19799    2.43772
 1131.26253   67.20926    0.35201    2.22993
 1132.26453   51.51177    0.22295    2.38709
 1133.26653   51.66892    0.21727    2.42432
 1134.26854   18.78641    0.18073    2.44624
 1135.27054   73.36314    0.19014    2.42670
 1136.27255   72.46576    0.21325    2.40016
 1137.27455   45.04946    0.23512    2.38358
 1138.27655   48.59053    0.21137    2.36944
 1139.27856   29.99252    0.27314    2.30356
 1140.28056   68.09874    0.27279    2.34884
 1141.28257   73.32067    0.17502    2.47008
 1142.28457   28.54009    0.19906    2.41121
 1143.28657   74.21537    0.33359    2.27165
 1144.28858   38.90974    0.32512    2.27932
 1145.29058   40.96212    0.17384    2.46226
 1146.29259   30.73631    0.27900    2.31027
 1147.29459   41.88042    0.31179    2.25127
 1148.29659   32.30709    0.27925    2.30345
 1149.29860   55.12275    0.22282    2.39353
 1150.30060   30.36906    0.33273    2.25959
 1151.30261   58.44365    0.28890    2.33706
 1152.30461   47.84008    0.33299    2.23680
 1153.30661   46.86645    0.24169    2.36483
 1154.30862   72.16765    0.34270    2.24700
 1155.31062   43.88709    0.24148    2.36410
 1156.31263   56.35875    0.21690    2.41427
 1157.31463   42.22230    0.18784    2.41035
 1158.31663   70.15906    0.21153    2.37714
 1159.31864   30.28619    0.20861    2.37320
 1160.32064   51.26399    0.34135    2.24545
 1161.32265   24.40519    0.21732    2.40507
 1162.32465   48.12205    0.33063    2.24960
 1163.32665   38.02672    0.30150    2.27990
 1164.32866   48.16297    0.28605    2.30634
 1165.33066   20.36306    0.28183    2.29439
 1166.33267   15.63653    0.30558    2.32513
 1167.33467   37.25164    0.25376    2.36736
 1168.33667   58.72795    0.35012    2.21843
 1169.33868   35.60245    0.25384    2.31755
 1170.34068   67.95510    0.18477    2.41373
 1171.34269   42.59445    0.10266    2.49356
 1172.34469   47.46877    0.29664    2.30849
 1173.34669   49.09194    0.21870    2.39223
 1174.34870   48.68603    0.24627    2.34168
 1175.35070   38.29208    0.18801    2.44532
 1176.35271   40.78611    0.29928    2.29769
 1177.35471   43.60308    0.16107    2.42152
