~Version ---------------------------------------------------
VERS.   2.0 : CWLS log ASCII Standard -VERSION 2.0
WRAP.    NO : One line per depth step
DLM . SPACE : Column Data Section Delimiter
~Well ------------------------------------------------------
STRT.M 1000.00000 : START DEPTH
STOP.M 1500.00000 : STOP DEPTH
STEP.M    1.00200 : STEP
NULL.     -999.25 : NULL VALUE
COMP.             : COMPANY
WELL.    WELL-008 : WELL
FLD .             : FIELD
LOC .             : LOCATION
PROV.             : PROVINCE
CNTY.             : COUNTY
STAT.             : STATE
CTRY.             : COUNTRY
SRVC.             : SERVICE COMPANY
DATE.             : DATE
UWI .             : UNIQUE WELL ID
API .             : API NUMBER
~Curve Information -----------------------------------------
DEPT.M     : 
G.R..API   : Gamma Ray
NPHI.V/V   : Neutron Porosity
RHOB.G/C3  : Bulk Density
~Params ----------------------------------------------------
~Other -----------------------------------------------------
~ASCII -----------------------------------------------------
# ...
 1178.35671   56.97378    0.19202    2.43450
 1179.35872   24.64079    0.19951    2.39888
 1180.36072   21.58778    0.29544    2.28383
 1181.36273   61.55209    0.26777    2.32685
 1182.36473   40.84003    0.25274    2.35190
 1183.36673   60.04861    0.21898    2.36441
 1184.36874   46.52307    0.26295    2.34471
 1185.37074   59.90490    0.33104    2.25686
 1186.37275   59.96944    0.23631    2.37169
 1187.37475   49.06439    0.16202    2.45126
 1188.37675   38.43398    0.23812    2.38698
 1189.37876   17.69480    0.24912    2.36596
 1190.38076   52.49499    0.23291    2.34344
 1191.38277   26.85055    0.29042    2.30965
 1192.38477   35.11866    0.24703    2.37696
 1193.38677   15.93044    0.30131    2.29044
 1194.38878   44.29724    0.29414    2.28300
 1195.39078   24.25462    0.25518    2.33755
 1196.39279   41.08561    0.30083    2.30005
 1197.39479   43.73377    0.17327    2.43527
 1198.39679   35.46284    0.26678    2.35373
 1199.39880   23.86941    0.27853    2.33425
 1200.40080   38.28578    0.24807    2.34543
 1201.40281   32.24491    0.25859    2.30219
 1202.40481   24.34870    0.24275    2.35899
 1203.40681   43.87004    0.28251    2.30728
 1204.40882   28.43410    0.25293    2.32811
 1205.41082   49.90100    0.31996    2.25520
 1206.41283   50.26275    0.26908    2.29251
 1207.41483   31.90841    0.37431    2.17319
 1208.41683   41.18165    0.32623    2.27742
 1209.41884   46.46180    0.24778    2.32852
 1210.42084   49.52572    0.22879    2.34657
 1211.42285   55.25611    0.20695    2.40377
 1212.42485   55.11918    0.19157    2.41204
 1213.42685   45.80927    0.36039    2.21172
 1214.42886   77.57247    0.27038    2.28702
 1215.43086   43.98917    0.28741    2.28532
 1216.43287   33.23704    0.21100    2.39542
 1217.43487   50.49717    0.29218    2.25992
 1218.43687   66.09015    0.21119    2.44474
 1219.43888   64.86061    0.22089    2.38810
 1220.44088    7.12328    0.25311    2.35112
 1221.44289   53.86354    0.23738    2.33380
 1222.44489   52.45507    0.27305    2.34454
 1223.44689   42.38627    0.27266    2.32337
 1224.44890   44.27624    0.17317    2.43972
 1225.45090   28.49382    0.23811    2.36100
 1226.45291   36.97569    0.23173    2.39935
 1227.45491   53.93355    0.31329    2.23928
 1228.45691   43.05249    0.22508    2.41128
 1229.45892   63.28002    0.33194    2.26123
 1230.46092   48.95015    0.27209    2.30794
 1231.46293   44.61971    0.26055    2.32058
 1232.46493   38.54375    0.25075    2.34200
 1233.46693   35.38886    0.28414    2.32821
 1234.46894   55.65611    0.25184    2.33804
 1235.47094   63.76351    0.15244    2.45820
 1236.47295   51.99667    0.28399    2.30996
 1237.47495   31.58566    0.22675    2.37381
 1238.47695   65.39669    0.30201    2.28570
 1239.47896   65.97097    0.33926    2.26500
 1240.48096   43.46656    0.25825    2.35053
 1241.48297   62.46911    0.28138    2.29696
 1242.48497   50.39377    0.26663    2.32699
 1243.48697   46.74876    0.24233    2.38172
 1244.48898   55.37733    0.21590    2.42678
 1245.49098   45.46279    0.28628    2.30195
 1246.49299   74.51032    0.28223    2.27795
 1247.49499   35.28042    0.25180    2.35805
 1248.49699   58.16008    0.16264    2.43427
 1249.49900   41.74952    0.28463    2.27539
 1250.50100   68.93755    0.25807    2.37501
 1251.50301   25.17273    0.25250    2.33196
 1252.50501   28.93973    0.18314    2.44392
 1253.50701   43.50779    0.29997    2.29793
 1254.50902   76.64013    0.24138    2.33873
 1255.51102   45.54059    0.28859    2.27372
 1256.51303   76.48369    0.21305    2.39399
 1257.51503   73.30012    0.19149    2.42168
 1258.51703   39.84852    0.27305    2.34452
 1259.51904   65.07372    0.19450    2.45811
 1260.52104   47.80169    0.24327    2.35429
 1261.52305   84.20404    0.26860    2.33140
 1262.52505   39.29437    0.27601    2.32851
 1263.52705   58.10945    0.27325    2.31083
 1264.52906   33.35889    0.27711    2.32026
 1265.53106   48.11840    0.33575    2.21780
 1266.53307   54.18700    0.29690    2.28917
 1267.53507   77.29236    0.30982    2.29170
 1268.53707   59.41011    0.21185    2.42517
 1269.53908   77.75514    0.25174    2.38855
 1270.54108   55.38886    0.22193    2.39284
 1271.54309   82.44869    0.21873    2.38502
 1272.54509   72.70698    0.30487    2.27113
 1273.54709   71.77642    0.26579    2.30176
 1274.54910   86.36524    0.21670    2.39860
 1275.55110   59.23568    0.26847    2.33994
 1276.55311   63.77065    0.28365    2.33622
 1277.55511   56.15068    0.16912    2.42900
 1278.55711   96.72827    0.35115    2.24256
 1279.55912   56.31161    0.28635    2.31247
 1280.56112   47.84726    0.31249    2.23265
 1281.56313   47.50955    0.25678    2.33990
 1282.56513   80.66652    0.19610    2.39421
 1283.56713   65.75560    0.27806    2.31051
 1284.56914   59.67692    0.21762    2.38819
 1285.57114   92.30435    0.23371    2.38560
 1286.57315   85.45522    0.19935    2.40642
 1287.57515   59.30553    0.21641    2.42694
 1288.57715   94.17252    0.11640    2.48467
 1289.57916   72.48342    0.31642    2.29527
 1290.58116   76.72628    0.23583    2.38056
 1291.58317   60.10569    0.18685    2.44056
 1292.58517   59.68934    0.27386    2.29709
 1293.58717   56.34281    0.09454    2.56224
 1294.58918   72.52289    0.33574    2.24802
 1295.59118  109.07316    0.25026    2.33202
 1296.59319   73.25277    0.24043    2.35869
 1297.59519   64.96252    0.23582    2.36697
 1298.59719   80.32196    0.16683    2.49791
 1299.59920   81.65479    0.34856    2.25374
 1300.60120   92.18661    0.24518    2.37535
 1301.60321   69.65871    0.27000    2.32116
 1302.60521   49.71606    0.25421    2.36679
 1303.60721   89.45810    0.21109    2.39060
 1304.60922   62.31037    0.19648    2.39167
 1305.61122   56.25648    0.23077    2.37322
 1306.61323   74.74416    0.20164    2.39690
 1307.61523   75.15911    0.22204    2.37830
 1308.61723   79.87438    0.22589    2.37056
 1309.61924   78.17198    0.28605    2.32279
 1310.62124   98.36772    0.20366    2.42129
 1311.62325   95.22797    0.26382    2.35092
 1312.62525   80.84393    0.24044    2.37016
 1313.62725   82.47270    0.24193    2.36706
 1314.62926   79.07913    0.19365    2.41347
 1315.63126  100.04703    0.31094    2.29051
 1316.63327   85.89715    0.23717    2.38546
 1317.63527   62.68234    0.21911    2.35872
 1318.63727  105.65248    0.25172    2.31604
 1319.63928   90.10566    0.27287    2.32275
 1320.64128   74.00289    0.26092    2.35005
 1321.64329   89.19823    0.20817    2.39967
 1322.64529   61.82786    0.26537    2.30933
 1323.64729   74.30530    0.16019    2.45630
 1324.64930   84.57443    0.25382    2.31737
 1325.65130   63.14841    0.34154    2.21222
 1326.65331   62.48561    0.25040    2.34032
 1327.65531   82.53802    0.21875    2.40919
 1328.65731   82.50560    0.30139    2.29923
 1329.65932   90.53536    0.34685    2.18600
 1330.66132   93.78883    0.22734    2.39911
 1331.66333   70.35306    0.30525    2.29031
 1332.66533   83.50872    0.17930    2.44486
 1333.66733   65.11055    0.30731    2.29188
 1334.66934   86.46392    0.23739    2.33540
 1335.67134   69.93761    0.27067    2.31479
 1336.67335   96.46422    0.30938    2.26372
 1337.67535   88.23201    0.23859    2.37918
 1338.67735   66.58500    0.25013    2.36085
 1339.67936   92.46465    0.27009    2.31753
 1340.68136   69.09515    0.27909    2.31580
 1341.68337   81.36509    0.38211    2.19651
 1342.68537   61.59509    0.35048    2.22219
 1343.68737  104.06082    0.26010    2.33443
 1344.68938   89.07344    0.28325    2.35895
 1345.69138  102.08211    0.20052    2.42453
 1346.69339   74.50371    0.18986    2.40719
 1347.69539   71.73799    0.27922    2.33861
 1348.69739   76.68279    0.25293    2.33584
 1349.69940  103.52873    0.29892    2.32558
 1350.70140  107.42783    0.26271    2.33768
 1351.70341   70.05597    0.25973    2.36244
 1352.70541   89.07906    0.27923    2.30892
 1353.70741   64.47257    0.14231    2.44959
 1354.70942   48.62333    0.33932    2.24352
 1355.71142   70.31385    0.27323    2.31073
