~Version ---------------------------------------------------
VERS.   2.0 : CWLS log ASCII Standard -VERSION 2.0
WRAP.    NO : One line per depth step
DLM . SPACE : Column Data Section Delimiter
~Well ------------------------------------------------------
STRT.M 1000.00000 : START DEPTH
STOP.M 1500.00000 : STOP DEPTH
STEP.M    1.00200 : STEP
NULL.     -999.25 : NULL VALUE
COMP.             : COMPANY
WELL.    WELL-009 : WELL
FLD .             : FIELD
LOC .             : LOCATION
PROV.             : PROVINCE
CNTY.             : COUNTY
STAT.             : STATE
CTRY.             : COUNTRY
SRVC.             : SERVICE COMPANY
DATE.             : DATE
UWI .             : UNIQUE WELL ID
API .             : API NUMBER
~Curve Information -----------------------------------------
DEPT.M     : 
GR  .API   : Gamma Ray
NEUT.V/V   : Neutron Porosity
DENS.G/C3  : Bulk Density
~Params ----------------------------------------------------
~Other -----------------------------------------------------
~ASCII -----------------------------------------------------
# ...
 1356.71343   87.27909    0.34067    2.24294
 1357.71543   83.57725    0.20714    2.39266
 1358.71743   71.60420    0.24968    2.35047
 1359.71944   91.02361    0.21155    2.39899
 1360.72144   69.37542    0.20829    2.42245
 1361.72345   75.57263    0.20007    2.40567
 1362.72545   90.92233    0.25837    2.32139
 1363.72745   53.00567    0.24915    2.37437
 1364.72946   86.30019    0.29237    2.28536
 1365.73146   64.39321    0.29842    2.29393
 1366.73347   40.86886    0.19342    2.38212
 1367.73547   87.17588    0.26695    2.32692
 1368.73747   91.06653    0.32474    2.26112
 1369.73948   66.23145    0.27942    2.30873
 1370.74148   76.21914    0.23915    2.35017
 1371.74349   38.56940    0.22900    2.36530
 1372.74549   70.04327    0.30507    2.24447
 1373.74749   75.38090    0.23814    2.37651
 1374.74950   70.18276    0.32559    2.24336
 1375.75150   98.22860    0.23433    2.37093
 1376.75351   64.38167    0.18448    2.39769
 1377.75551   71.59098    0.29753    2.29547
 1378.75752   53.11499    0.23659    2.35955
 1379.75952   67.86404    0.19746    2.41299
 1380.76152   83.63104    0.15721    2.47111
 1381.76353   75.42074    0.24844    2.35472
 1382.76553   68.87907    0.39225    2.18405
 1383.76754   42.93008    0.20609    2.41092
 1384.76954   69.73681    0.19123    2.40973
 1385.77154   54.59384    0.25954    2.34441
 1386.77355   35.25863    0.15345    2.48291
 1387.77555   59.33428    0.23828    2.33383
 1388.77756   66.65823    0.27610    2.34780
 1389.77956   82.51063    0.34047    2.24700
 1390.78156   78.43159    0.30642    2.28728
 1391.78357   99.24890    0.27899    2.35177
 1392.78557   60.19930    0.24832    2.33833
 1393.78758   54.38685    0.25049    2.37742
 1394.78958   80.46881    0.21747    2.35449
 1395.79158   65.77869    0.24905    2.33365
 1396.79359   71.58803    0.35268    2.23213
 1397.79559   66.84443    0.16820    2.45565
 1398.79760   56.89851    0.25234    2.35943
 1399.79960   75.82707    0.22839    2.38068
 1400.80160   76.21705    0.32836    2.25347
 1401.80361   40.86216    0.26640    2.36233
 1402.80561   45.88950    0.24408    2.36079
 1403.80762   59.08649    0.24364    2.36629
 1404.80962   93.59542    0.17908    2.45311
 1405.81162   78.06031    0.31970    2.26267
 1406.81363   87.66839    0.29141    2.29756
 1407.81563   82.03759    0.26118    2.36010
 1408.81764   81.82316    0.22846    2.39892
 1409.81964   62.60289    0.37173    2.24980
 1410.82164   51.00292    0.26752    2.36801
 1411.82365   66.35758    0.24838    2.35264
 1412.82565   55.14490    0.30784    2.26547
 1413.82766   83.51341    0.25894    2.33400
 1414.82966   62.11344    0.20236    2.39089
 1415.83166   80.01698    0.28856    2.29384
 1416.83367   82.57425    0.23842    2.38740
 1417.83567   44.77994    0.22235    2.35969
 1418.83768   50.92139    0.16730    2.45338
 1419.83968   46.06542    0.33912    2.24041
 1420.84168   84.65824    0.25371    2.29113
 1421.84369   44.32358    0.29288    2.30887
 1422.84569   51.88324    0.22831    2.37562
 1423.84770   68.92033    0.28949    2.26667
 1424.84970   46.46691    0.33611    2.25833
 1425.85170   29.28218    0.30435    2.26647
 1426.85371   50.40424    0.27448    2.30542
 1427.85571   71.94147    0.19519    2.43942
 1428.85772   59.78297    0.18062    2.45613
 1429.85972   44.94149    0.19242    2.42885
 1430.86172   53.01595    0.28646    2.30186
 1431.86373   81.28483    0.27883    2.33625
 1432.86573   73.41241    0.17805    2.43517
 1433.86774   43.29883    0.27539    2.33264
 1434.86974   56.21176    0.34090    2.23939
 1435.87174   31.74688    0.16600    2.45570
 1436.87375   75.87428    0.25424    2.37979
 1437.87575   39.61652    0.24831    2.38096
 1438.87776   60.28031    0.31124    2.26065
 1439.87976   47.09701    0.29120    2.26836
 1440.88176   65.03033    0.28545    2.32671
 1441.88377   49.68938    0.23159    2.33992
 1442.88577   65.68590    0.15892    2.43632
 1443.88778   37.99549    0.26242    2.33063
 1444.88978   57.38951    0.23979    2.38268
 1445.89178   41.17033    0.31708    2.29891
 1446.89379   49.13193    0.26797    2.35651
 1447.89579   37.04554    0.37033    2.21588
 1448.89780   53.18943    0.19320    2.43599
 1449.89980   36.00474    0.23875    2.37283
 1450.90180   23.15351    0.34925    2.22139
 1451.90381   31.78275    0.27894    2.30287
 1452.90581   28.24834    0.27321    2.31417
 1453.90782   39.80380    0.19780    2.40650
 1454.90982   27.20753    0.23902    2.36896
 1455.91182   51.92281    0.22549    2.37431
 1456.91383   43.90262    0.24223    2.35896
 1457.91583   72.27484    0.22155    2.40502
 1458.91784   47.11708    0.24152    2.36159
 1459.91984   22.97545    0.21140    2.40520
 1460.92184   50.35249    0.30694    2.28939
 1461.92385   45.27276    0.23135    2.33863
 1462.92585   16.05350    0.30394    2.27071
 1463.92786   47.66591    0.10659    2.55731
 1464.92986   71.47099    0.22324    2.39542
 1465.93186   52.71020    0.31072    2.29478
 1466.93387   37.90544    0.21760    2.40184
 1467.93587   76.59875    0.22794    2.37030
 1468.93788   46.44392    0.19518    2.44757
 1469.93988   38.50491    0.23026    2.38543
 1470.94188   26.66625    0.22699    2.39321
 1471.94389   23.65984    0.27365    2.33631
 1472.94589   28.50297    0.22870    2.37714
 1473.94790   65.47796    0.28404    2.29051
 1474.94990   61.88930    0.28717    2.30265
 1475.95190   41.41046    0.27057    2.30478
 1476.95391   61.87043    0.21022    2.40565
 1477.95591   36.70447    0.28265    2.31338
 1478.95792   31.26759    0.34890    2.21391
 1479.95992   33.14829    0.24815    2.39366
 1480.96192   32.38431    0.42694    2.11385
 1481.96393   24.72396    0.24100    2.36765
 1482.96593   26.94455    0.30832    2.31800
 1483.96794   47.85896    0.25802    2.37768
 1484.96994   38.76556    0.24139    2.34768
 1485.97194   30.89136    0.23875    2.35178
 1486.97395   53.97231    0.22318    2.40625
 1487.97595   42.87551    0.30468    2.29203
 1488.97796   41.62428    0.21390    2.41895
 1489.97996   62.02793    0.23178    2.40106
 1490.98196   28.95502    0.27248    2.35373
 1491.98397   51.00354    0.32824    2.27032
 1492.98597   72.42256    0.22878    2.38198
 1493.98798   31.31683    0.30368    2.28630
 1494.98998   42.63037    0.30677    2.26451
 1495.99198   64.65757    0.28085    2.31897
 1496.99399   43.96337    0.21045    2.41931
 1497.99599   36.82387    0.28978    2.27878
 1498.99800   57.48745    0.38039    2.20360
 1500.00000   30.92214    0.20778    2.41738
