~Version ---------------------------------------------------
VERS.   2.0 : CWLS log ASCII Standard -VERSION 2.0
WRAP.    NO : One line per depth step
DLM . SPACE : Column Data Section Delimiter
~Well ------------------------------------------------------
STRT.M 1000.00000 : START DEPTH
STOP.M 1500.00000 : STOP DEPTH
STEP.M    1.00200 : STEP
NULL.     -999.25 : NULL VALUE
COMP.             : COMPANY
WELL.    WELL-004 : WELL
FLD .             : FIELD
LOC .             : LOCATION
PROV.             : PROVINCE
CNTY.             : COUNTY
STAT.             : STATE
CTRY.             : COUNTRY
SRVC.             : SERVICE COMPANY
DATE.             : DATE
UWI .             : UNIQUE WELL ID
API .             : API NUMBER
~Curve Information -----------------------------------------
DEPT.M     : 
GR  .API   : Gamma Ray
NPHI.V/V   : Neutron Porosity
RHOB.G/C3  : Bulk Density
~Params ----------------------------------------------------
~Other -----------------------------------------------------
~ASCII -----------------------------------------------------
# ...
 1178.35671   40.93281    0.22624    2.37236
 1179.35872   39.64444    0.23226    2.37043
 1180.36072   37.64363    0.25836    2.34278
 1181.36273   29.89992    0.26676    2.31064
 1182.36473   51.55562    0.22290    2.34130
 1183.36673   45.76688    0.30784    2.25694
 1184.36874   36.39208    0.14742    2.48940
 1185.37074   67.17107    0.32028    2.27624
 1186.37275   26.20395    0.17062    2.46199
 1187.37475   34.56020    0.28586    2.34528
 1188.37675   47.33826    0.30945    2.26385
 1189.37876   41.82900    0.21452    2.40545
 1190.38076   27.87652    0.34829    2.22658
 1191.38277   31.92960    0.26606    2.32552
 1192.38477   42.67472    0.24381    2.36082
 1193.38677   59.45571    0.19086    2.44660
 1194.38878   33.22370    0.28815    2.30904
 1195.39078   60.26471    0.25855    2.37186
 1196.39279   15.35463    0.21832    2.38846
 1197.39479   56.66812    0.27818    2.34957
 1198.39679   38.88246    0.30658    2.24972
 1199.39880   16.84104    0.17104    2.41004
 1200.40080   51.00982    0.26266    2.30794
 1201.40281   46.31021    0.31037    2.30985
 1202.40481   53.61294    0.27895    2.29732
 1203.40681   48.17392    0.23650    2.37640
 1204.40882   40.83006    0.27086    2.35185
 1205.41082   43.73130    0.30963    2.31211
 1206.41283   62.23778    0.22600    2.37077
 1207.41483   34.35720    0.21594    2.43464
 1208.41683   15.07711    0.26060    2.33259
 1209.41884   21.20073    0.19977    2.40664
 1210.42084   42.96644    0.24655    2.33060
 1211.42285   44.23246    0.24121    2.36935
 1212.42485   62.47774    0.28521    2.27007
 1213.42685   35.44197    0.27502    2.34235
 1214.42886   68.09682    0.21659    2.42047
 1215.43086   58.21355    0.27522    2.34476
 1216.43287   57.51475    0.33071    2.25659
 1217.43487   44.73793    0.17501    2.45005
 1218.43687   38.07462    0.25689    2.34148
 1219.43888   58.92849    0.36007    2.20950
 1220.44088   72.45939    0.27225    2.34674
 1221.44289   61.51595    0.31118    2.22158
 1222.44489   39.62479    0.15865    2.46156
 1223.44689   48.06014    0.15329    2.49690
 1224.44890   27.27159    0.22016    2.38669
 1225.45090   60.36834    0.13262    2.52671
 1226.45291   35.46117    0.30530    2.28752
 1227.45491   51.73684    0.23072    2.40223
 1228.45691   53.21167    0.22827    2.38049
 1229.45892   52.71010    0.20344    2.40540
 1230.46092   63.57890    0.19695    2.41957
 1231.46293   64.63930    0.17551    2.43902
 1232.46493   25.71219    0.25222    2.31581
 1233.46693   45.66574    0.26522    2.33975
 1234.46894   49.84606    0.26395    2.34777
 1235.47094   40.75811    0.28187    2.32169
 1236.47295   89.56610    0.27713    2.32142
 1237.47495   67.80337    0.30039    2.28847
 1238.47695   47.23884    0.23036    2.42033
 1239.47896   48.08990    0.24320    2.35098
 1240.48096   47.53895    0.29771    2.28691
 1241.48297   53.45780    0.17764    2.40596
 1242.48497   33.11206    0.26627    2.33299
 1243.48697   51.15265    0.26841    2.31497
 1244.48898   71.18406    0.32311    2.27736
 1245.49098   43.45681    0.33525    2.25103
 1246.49299   41.92074    0.24400    2.32071
 1247.49499   55.34584    0.21273    2.41426
 1248.49699   57.22675    0.18870    2.42795
 1249.49900   63.52055    0.28509    2.32809
 1250.50100   50.07171    0.13243    2.46201
 1251.50301   53.96096    0.27032    2.35364
 1252.50501   35.35195    0.26319    2.31846
 1253.50701   69.46812    0.19874    2.37613
 1254.50902   71.47278    0.19995    2.40711
 1255.51102   69.95798    0.30234    2.29307
 1256.51303   73.92719    0.26297    2.32348
 1257.51503   66.66852    0.16841    2.40685
 1258.51703   79.97819    0.31262    2.26557
 1259.51904   44.54450    0.26853    2.35365
 1260.52104   57.96530    0.25409    2.34300
 1261.52305   79.69181    0.36216    2.22223
 1262.52505   48.05225    0.26711    2.34955
 1263.52705   27.72158    0.26177    2.37300
 1264.52906   77.91277    0.26523    2.33131
 1265.53106   78.12542    0.34544    2.25594
 1266.53307   77.52240    0.28708    2.30426
 1267.53507   68.87656    0.18442    2.40101
 1268.53707   76.49160    0.21479    2.40134
 1269.53908   92.28227    0.24351    2.33574
 1270.54108   73.29154    0.24780    2.34843
 1271.54309   55.32755    0.27633    2.32128
 1272.54509   46.15021    0.19125    2.38435
 1273.54709   81.72467    0.24062    2.37733
 1274.54910   90.72953    0.25569    2.35763
 1275.55110   64.53730    0.22861    2.38864
 1276.55311   81.83812    0.24420    2.33366
 1277.55511   68.70795    0.25743    2.35233
 1278.55711   94.44326    0.22364    2.38051
 1279.55912   65.13838    0.32969    2.27030
 1280.56112   85.02417    0.27961    2.35060
 1281.56313   87.13223    0.19991    2.42220
 1282.56513   57.84050    0.24817    2.35042
 1283.56713   70.37182    0.19983    2.39752
 1284.56914   50.51826    0.26620    2.32615
 1285.57114   97.54005    0.27963    2.32402
 1286.57315   77.32663    0.32790    2.24770
 1287.57515  100.63445    0.19640    2.41746
 1288.57715   73.91641    0.19146    2.40498
 1289.57916   73.11910    0.24121    2.38181
 1290.58116   60.25295    0.32309    2.28543
 1291.58317   66.73896    0.35901    2.18335
 1292.58517   76.33734    0.30056    2.30262
 1293.58717   85.36747    0.30103    2.29155
 1294.58918   15.41027    0.27809    2.34296
 1295.59118   91.70382    0.24791    2.32077
 1296.59319   64.05172    0.19704    2.39897
 1297.59519   62.91630    0.21068    2.40154
 1298.59719   88.97005    0.34974    2.21036
 1299.59920   74.54887    0.23801    2.33706
 1300.60120   76.06277    0.26484    2.32957
 1301.60321   69.09784    0.31703    2.25153
 1302.60521   94.37733    0.25792    2.33403
 1303.60721   80.61139    0.28861    2.34290
 1304.60922   74.72704    0.16876    2.47234
 1305.61122   65.58736    0.23428    2.36151
 1306.61323   64.43601    0.24183    2.38356
 1307.61523   64.32889    0.25218    2.31749
 1308.61723   86.02073    0.25230    2.31146
 1309.61924   62.46959    0.24896    2.34861
 1310.62124   82.69421    0.21485    2.35712
 1311.62325   65.76657    0.28138    2.30350
 1312.62525   64.18331    0.25744    2.33903
 1313.62725   68.21422    0.17206    2.41586
 1314.62926   94.24926    0.22790    2.34349
 1315.63126   77.49870    0.26167    2.30888
 1316.63327   78.54465    0.35440    2.19184
 1317.63527   93.11776    0.30248    2.28621
 1318.63727   76.93952    0.20160    2.41156
 1319.63928   65.41402    0.28279    2.31401
 1320.64128   64.68180    0.16333    2.44191
 1321.64329   63.00045    0.24190    2.34158
 1322.64529   49.75924    0.26957    2.31775
 1323.64729   80.27207    0.33314    2.29062
 1324.64930  100.55380    0.13670    2.50127
 1325.65130   68.00533    0.26704    2.31251
 1326.65331   71.22042    0.30445    2.27435
 1327.65531   50.52154    0.25001    2.35370
 1328.65731  105.18453    0.27966    2.29458
 1329.65932   74.53497    0.34135    2.25480
 1330.66132   72.81852    0.21548    2.36438
 1331.66333   64.43268    0.21009    2.40393
 1332.66533   83.64994    0.29937    2.29107
 1333.66733   68.56366    0.23650    2.37062
 1334.66934   90.15514    0.23829    2.33894
 1335.67134   94.42268    0.29888    2.26644
 1336.67335   81.53168    0.29450    2.28957
 1337.67535   79.89078    0.20804    2.39384
 1338.67735   80.12464    0.33982    2.22222
 1339.67936   87.46202    0.22638    2.39361
 1340.68136   70.04100    0.24211    2.37211
 1341.68337   71.02512    0.23938    2.37306
 1342.68537   90.98429    0.24459    2.36167
 1343.68737   66.20207    0.19790    2.41536
 1344.68938   48.98685    0.23762    2.36759
 1345.69138   75.91417    0.18918    2.42198
 1346.69339   62.55088    0.28712    2.29410
 1347.69539   45.29118    0.32065    2.23963
 1348.69739   83.96109    0.23545    2.34533
 1349.69940   75.35858    0.29391    2.29739
 1350.70140   79.86328    0.24959    2.35239
 1351.70341   80.49264    0.29463    2.24938
 1352.70541   65.00185    0.24591    2.34642
 1353.70741   84.59692    0.20499    2.45153
 1354.70942   90.47163    0.40622    2.18716
 1355.71142   64.81606    0.25500    2.32329
