~Version ---------------------------------------------------
VERS.   2.0 : CWLS log ASCII Standard -VERSION 2.0
WRAP.    NO : One line per depth step
DLM . SPACE : Column Data Section Delimiter
~Well ------------------------------------------------------
STRT.M 1000.00000 : START DEPTH
STOP.M 1500.00000 : STOP DEPTH
STEP.M    1.00200 : STEP
NULL.     -999.25 : NULL VALUE
COMP.             : COMPANY
WELL.    WELL-007 : WELL
FLD .             : FIELD
LOC .             : LOCATION
PROV.             : PROVINCE
CNTY.             : COUNTY
STAT.             : STATE
CTRY.             : COUNTRY
SRVC.             : SERVICE COMPANY
DATE.             : DATE
UWI .             : UNIQUE WELL ID
API .             : API NUMBER
~Curve Information -----------------------------------------
DEPT.M     : 
GR  .API   : Gamma Ray
NPHI.V/V   : Neutron Porosity
RHOB.G/C3  : Bulk Density
~Params ----------------------------------------------------
~Other -----------------------------------------------------
~ASCII -----------------------------------------------------
# ...
 1356.71343   54.91384    0.33268    2.24230
 1357.71543   72.41657    0.24795    2.34281
 1358.71743   68.55427    0.25365    2.33106
 1359.71944   65.78433    0.23730    2.38899
 1360.72144   74.60545    0.27332    2.30223
 1361.72345   82.82871    0.22133    2.39166
 1362.72545   71.76982    0.25927    2.31266
 1363.72745   79.73444    0.31998    2.24334
 1364.72946   85.15215    0.25975    2.31434
 1365.73146   74.49230    0.19423    2.42952
 1366.73347   47.12515    0.24689    2.39158
 1367.73547   96.75483    0.23843    2.36855
 1368.73747   95.13548    0.26037    2.31149
 1369.73948   91.19616    0.28912    2.32121
 1370.74148   64.98019    0.31137    2.26109
 1371.74349   55.50997    0.25760    2.32567
 1372.74549   70.81452    0.20967    2.38729
 1373.74749   58.62684    0.21528    2.40116
 1374.74950   52.02135    0.18005    2.45786
 1375.75150   80.49871    0.25950    2.36406
 1376.75351   83.38427    0.23704    2.34142
 1377.75551   77.56162    0.21642    2.39144
 1378.75752   64.95801    0.32963    2.26659
 1379.75952   75.39490    0.29696    2.29717
 1380.76152   77.70861    0.22510    2.37418
 1381.76353   87.70663    0.24655    2.32922
 1382.76553   79.04802    0.21050    2.39868
 1383.76754   66.92914    0.25695    2.33144
 1384.76954   59.10692    0.20773    2.37918
 1385.77154   55.75157    0.23582    2.38099
 1386.77355   74.97383    0.24635    2.37149
 1387.77555   72.80999    0.30247    2.24706
 1388.77756   61.88382    0.21153    2.39130
 1389.77956   46.62193    0.20918    2.40345
 1390.78156   43.80507    0.29333    2.29815
 1391.78357   83.86940    0.23468    2.33770
 1392.78557   32.81033    0.25983    2.31593
 1393.78758   77.94744    0.32856    2.27942
 1394.78958   92.76372    0.18984    2.40803
 1395.79158   57.84263    0.21836    2.37664
 1396.79359   58.08951    0.24265    2.38900
 1397.79559   84.32539    0.25320    2.37819
 1398.79760   58.29767    0.18219    2.40993
 1399.79960   44.08541    0.25451    2.32513
 1400.80160   80.92885    0.28248    2.30366
 1401.80361   49.68680    0.28272    2.33909
 1402.80561   53.59757    0.27045    2.34937
 1403.80762   83.47922    0.24226    2.33511
 1404.80962   46.94306    0.26982    2.33929
 1405.81162   75.86488    0.24741    2.36338
 1406.81363   86.62085    0.22629    2.39643
 1407.81563   71.87292    0.21224    2.42834
 1408.81764   49.87415    0.29509    2.27722
 1409.81964   76.38190    0.32021    2.26878
 1410.82164   89.03370    0.23940    2.36272
 1411.82365   79.01022    0.21310    2.35322
 1412.82565   44.82557    0.30485    2.27552
 1413.82766   62.70787    0.21918    2.37525
 1414.82966   69.12734    0.21740    2.38281
 1415.83166   58.70839    0.22157    2.40465
 1416.83367   66.46862    0.27585    2.30207
 1417.83567   62.35452    0.22382    2.39887
 1418.83768   69.32461    0.18849    2.42487
 1419.83968   52.45041    0.27150    2.34341
 1420.84168   73.02948    0.28672    2.33107
 1421.84369   50.24866    0.29407    2.26726
 1422.84569   54.09733    0.15581    2.43268
 1423.84770   83.17882    0.22504    2.39584
 1424.84970   54.38588    0.21457    2.40425
 1425.85170   40.68195    0.26282    2.28095
 1426.85371   56.87441    0.30532    2.28921
 1427.85571   40.33072    0.25744    2.31854
 1428.85772   45.20334    0.14430    2.45025
 1429.85972   45.75905    0.17071    2.42067
 1430.86172   61.34085    0.17304    2.43394
 1431.86373   52.23047    0.26680    2.34567
 1432.86573   51.28693    0.20146    2.38405
 1433.86774   39.78855    0.27183    2.31819
 1434.86974   71.75955    0.18920    2.45658
 1435.87174   58.95398    0.19566    2.43932
 1436.87375   24.76885    0.23504    2.33762
 1437.87575   46.67587    0.17774    2.44001
 1438.87776   49.63254    0.19260    2.41285
 1439.87976   56.55223    0.26318    2.32299
 1440.88176   66.22946    0.20592    2.40460
 1441.88377   63.68758    0.25313    2.37364
 1442.88577   52.16447    0.23475    2.37757
 1443.88778   34.51095    0.19540    2.45472
 1444.88978   40.13298    0.22235    2.41037
 1445.89178   39.46085    0.28927    2.30422
 1446.89379   43.80219    0.24036    2.35444
 1447.89579   64.28750    0.31694    2.27552
 1448.89780   52.92766    0.20249    2.42180
 1449.89980   37.94126    0.19437    2.38261
 1450.90180   44.44663    0.28162    2.27949
 1451.90381   61.43684    0.21926    2.43142
 1452.90581   41.08932    0.22883    2.37188
 1453.90782   44.58289    0.25445    2.36137
 1454.90982   43.21281    0.29690    2.29188
 1455.91182   50.50248    0.20120    2.41877
 1456.91383   38.42363    0.28848    2.30328
 1457.91583   26.73601    0.33558    2.23847
 1458.91784   32.80889    0.25432    2.34681
 1459.91984   40.40613    0.23214    2.40625
 1460.92184   50.50128    0.29663    2.28863
 1461.92385   12.95789    0.18716    2.45206
 1462.92585   61.30681    0.18338    2.42449
 1463.92786   25.86652    0.28891    2.31063
 1464.92986   57.41879    0.29381    2.30857
 1465.93186   38.56630    0.25984    2.34560
 1466.93387   41.97462    0.24929    2.34650
 1467.93587   42.77439    0.22986    2.38807
 1468.93788   61.63823    0.32941    2.28061
 1469.93988   22.67610    0.24798    2.36479
 1470.94188   52.95739    0.26330    2.31013
 1471.94389   65.82293    0.23853    2.36364
 1472.94589   18.92364    0.22022    2.35758
 1473.94790   20.86970    0.29895    2.28534
 1474.94990   41.02935    0.30871    2.28252
 1475.95190   31.95251    0.20899    2.42776
 1476.95391   44.67897    0.23864    2.33370
 1477.95591   45.54829    0.21194    2.38584
 1478.95792   40.41179    0.17037    2.43484
 1479.95992   42.94148    0.21686    2.38262
 1480.96192   35.73754    0.29277    2.28187
 1481.96393   35.80033    0.26222    2.33010
 1482.96593   31.19799    0.32997    2.25348
 1483.96794   27.27609    0.19572    2.41479
 1484.96994   15.12857    0.28137    2.29716
 1485.97194   27.86411    0.27659    2.31983
 1486.97395   46.88713    0.26669    2.32678
 1487.97595   45.29222    0.31474    2.27445
 1488.97796   39.23649    0.25439    2.34888
 1489.97996   43.80719    0.27838    2.28486
 1490.98196   44.76269    0.28356    2.32842
 1491.98397    3.45933    0.23440    2.36371
 1492.98597   23.27217    0.22125    2.38678
 1493.98798   59.94750    0.32840    2.24715
 1494.98998   12.82524    0.25177    2.35660
 1495.99198   41.36352    0.25001    2.31214
 1496.99399   60.31488    0.19623    2.40107
 1497.99599   22.93122    0.31953    2.25853
 1498.99800   61.31829    0.17066    2.45849
 1500.00000   16.23935    0.25872    2.34350
