~Version ---------------------------------------------------
VERS.   2.0 : CWLS log ASCII Standard -VERSION 2.0
WRAP.    NO : One line per depth step
DLM . SPACE : Column Data Section Delimiter
~Well ------------------------------------------------------
STRT.M 1000.00000 : START DEPTH
STOP.M 1500.00000 : STOP DEPTH
STEP.M    1.00200 : STEP
NULL.     -999.25 : NULL VALUE
COMP.             : COMPANY
WELL.    WELL-006 : WELL
FLD .             : FIELD
LOC .             : LOCATION
PROV.             : PROVINCE
CNTY.             : COUNTY
STAT.             : STATE
CTRY.             : COUNTRY
SRVC.             : SERVICE COMPANY
DATE.             : DATE
UWI .             : UNIQUE WELL ID
API .             : API NUMBER
~Curve Information -----------------------------------------
DEPT.M     : 
GR  .API   : Gamma Ray
NPHI.V/V   : Neutron Porosity
RHOB.G/C3  : Bulk Density
~Params ----------------------------------------------------
~Other -----------------------------------------------------
~ASCII -----------------------------------------------------
# ...
 1356.71343   96.68854    0.19516    2.37199
 1357.71543   72.26908    0.14762    2.46507
 1358.71743  103.94663    0.25820    2.36063
 1359.71944   76.01177    0.28312    2.29213
 1360.72144   79.95351    0.31522    2.21875
 1361.72345   65.13491    0.26774    2.33181
 1362.72545   87.97828    0.25860    2.34072
 1363.72745   58.10477    0.38191    2.17433
 1364.72946  102.56101    0.25699    2.29999
 1365.73146   88.37649    0.20137    2.39710
 1366.73347   78.38914    0.29028    2.30031
 1367.73547   78.24323    0.21795    2.39364
 1368.73747   32.79438    0.34328    2.25407
 1369.73948   76.47687    0.27480    2.32456
 1370.74148   48.65988    0.28266    2.27950
 1371.74349   71.14307    0.23478    2.36060
 1372.74549   61.29857    0.27093    2.34890
 1373.74749   83.78976    0.24104    2.36118
 1374.74950   51.67282    0.31358    2.25003
 1375.75150   77.57251    0.27819    2.31743
 1376.75351   70.35652    0.29238    2.29139
 1377.75551   66.72483    0.23831    2.40135
 1378.75752   88.58907    0.24062    2.32673
 1379.75952   74.11959    0.26079    2.34127
 1380.76152   62.21702    0.20877    2.35771
 1381.76353   95.79791    0.21885    2.39878
 1382.76553   80.63475    0.22093    2.37352
 1383.76754   71.98004    0.23907    2.35694
 1384.76954   65.44867    0.20378    2.40439
 1385.77154   64.69860    0.26649    2.30855
 1386.77355   37.50847    0.28535    2.30328
 1387.77555   72.92805    0.12318    2.50058
 1388.77756   64.49674    0.30116    2.27482
 1389.77956   51.18811    0.22580    2.33081
 1390.78156   50.84202    0.32317    2.27285
 1391.78357   60.80106    0.24010    2.27931
 1392.78557   73.31743    0.21802    2.39892
 1393.78758   96.46214    0.19689    2.42531
 1394.78958   95.67827    0.20808    2.40464
 1395.79158   70.15722    0.19036    2.45036
 1396.79359   64.77165    0.21590    2.37217
 1397.79559   79.74094    0.28332    2.30481
 1398.79760   68.19745    0.21534    2.43057
 1399.79960   66.76855    0.22373    2.38981
 1400.80160   89.61923    0.21393    2.40558
 1401.80361   63.94210    0.19154    2.41116
 1402.80561   47.21448    0.31380    2.28719
 1403.80762   81.37710    0.20123    2.42927
 1404.80962   43.59672    0.22903    2.38367
 1405.81162   87.67113    0.24218    2.33021
 1406.81363  101.75477    0.28047    2.32649
 1407.81563   77.67389    0.17208    2.45596
 1408.81764   60.13949    0.14855    2.49722
 1409.81964   52.69141    0.29592    2.31644
 1410.82164   72.30560    0.17354    2.44028
 1411.82365   48.87059    0.29148    2.28873
 1412.82565   75.25606    0.22687    2.38785
 1413.82766   37.51815    0.28914    2.30346
 1414.82966   88.74347    0.25388    2.33468
 1415.83166   28.03677    0.23890    2.34134
 1416.83367   65.93793    0.21560    2.40889
 1417.83567   62.03738    0.28948    2.30722
 1418.83768   60.12610    0.25229    2.32536
 1419.83968   56.48990    0.21581    2.37441
 1420.84168   51.60992    0.33076    2.23622
 1421.84369   44.34841    0.22518    2.39529
 1422.84569   66.44291    0.33989    2.26092
 1423.84770   80.40746    0.18695    2.42421
 1424.84970   62.88632    0.17564    2.45687
 1425.85170   39.80523    0.26206    2.35984
 1426.85371   57.67014    0.32971    2.22275
 1427.85571   42.46967    0.32874    2.24967
 1428.85772   68.87025    0.18645    2.41774
 1429.85972   48.91902    0.29180    2.28695
 1430.86172   58.31726    0.21228    2.36754
 1431.86373   64.52877    0.10456    2.53755
 1432.86573   41.66064    0.31825    2.23219
 1433.86774   50.02540    0.31437    2.27779
 1434.86974   33.73232    0.21373    2.41164
 1435.87174   59.05156    0.24910    2.36177
 1436.87375   53.70122    0.28224    2.33497
 1437.87575   32.32767    0.18930    2.40965
 1438.87776   77.33980    0.20385    2.40897
 1439.87976   65.87403    0.23774    2.39522
 1440.88176   38.97391    0.30914    2.30258
 1441.88377   82.41009    0.35478    2.19028
 1442.88577   80.54291    0.32231    2.26531
 1443.88778   48.57209    0.21295    2.39903
 1444.88978   44.73153    0.22608    2.39632
 1445.89178   55.01088    0.28425    2.30761
 1446.89379   43.60127    0.27242    2.31061
 1447.89579   42.05902    0.30926    2.29311
 1448.89780   54.55721    0.19812    2.37384
 1449.89980   40.37111    0.20044    2.43414
 1450.90180   63.83693    0.25478    2.33886
 1451.90381   82.54183    0.30201    2.28324
 1452.90581   56.06214    0.24585    2.30824
 1453.90782   49.95443    0.31826    2.27116
 1454.90982   26.46850    0.27033    2.33786
 1455.91182   30.06531    0.18818    2.42683
 1456.91383   50.63327    0.15431    2.47289
 1457.91583   44.93506    0.26393    2.31311
 1458.91784   66.18632    0.22199    2.37421
 1459.91984   45.84951    0.32353    2.27263
 1460.92184   49.15535    0.14695    2.48298
 1461.92385   46.98653    0.20840    2.43173
 1462.92585   47.59362    0.20359    2.36960
 1463.92786   43.56290    0.35531    2.19675
 1464.92986   42.26380    0.23976    2.35215
 1465.93186   23.80518    0.22593    2.34924
 1466.93387   32.21588    0.29476    2.26761
 1467.93587   57.16366    0.21308    2.37316
 1468.93788   59.28904    0.24994    2.34983
 1469.93988   60.31621    0.20409    2.40016
 1470.94188   56.09449    0.28724    2.31327
 1471.94389   57.99174    0.32624    2.24787
 1472.94589   58.92726    0.19181    2.43249
 1473.94790   62.88807    0.27940    2.33073
 1474.94990   48.29106    0.29703    2.27465
 1475.95190   50.93845    0.15167    2.46839
 1476.95391   18.83695    0.27942    2.33607
 1477.95591   21.48455    0.26004    2.31926
 1478.95792   40.12183    0.29502    2.28585
 1479.95992   23.93103    0.17779    2.43461
 1480.96192   65.67558    0.23765    2.36498
 1481.96393   39.83450    0.28128    2.29553
 1482.96593   43.11379    0.24499    2.35576
 1483.96794   58.12416    0.17233    2.44246
 1484.96994   45.47875    0.21173    2.39577
 1485.97194   39.80165    0.19104    2.39952
 1486.97395   23.70945    0.23641    2.36971
 1487.97595   40.59784    0.25677    2.35743
 1488.97796   39.53905    0.16947    2.45471
 1489.97996   26.78812    0.26534    2.32468
 1490.98196   60.53391    0.20520    2.41793
 1491.98397   26.40775    0.25195    2.32993
 1492.98597   15.72320    0.34193    2.24826
 1493.98798   36.32654    0.19956    2.41956
 1494.98998   20.52907    0.31210    2.29448
 1495.99198   33.44596    0.22748    2.39814
 1496.99399   57.72827    0.18234    2.45514
 1497.99599   51.63361    0.22747    2.35238
 1498.99800   46.26980    0.24025    2.37716
 1500.00000   66.19157    0.17931    2.48090
