~Version ---------------------------------------------------
VERS.   2.0 : CWLS log ASCII Standard -VERSION 2.0
WRAP.    NO : One line per depth step
DLM . SPACE : Column Data Section Delimiter
~Well ------------------------------------------------------
STRT.M 1000.00000 : START DEPTH
STOP.M 1500.00000 : STOP DEPTH
STEP.M    1.00200 : STEP
NULL.     -999.25 : NULL VALUE
COMP.             : COMPANY
WELL.    WELL-006 : WELL
FLD .             : FIELD
LOC .             : LOCATION
PROV.             : PROVINCE
CNTY.             : COUNTY
STAT.             : STATE
CTRY.             : COUNTRY
SRVC.             : SERVICE COMPANY
DATE.             : DATE
UWI .             : UNIQUE WELL ID
API .             : API NUMBER
~Curve Information -----------------------------------------
DEPT.M     : 
GR  .API   : Gamma Ray
NPHI.V/V   : Neutron Porosity
RHOB.G/C3  : Bulk Density
~Params ----------------------------------------------------
~Other -----------------------------------------------------
~ASCII -----------------------------------------------------
# ...
 1178.35671   11.93124    0.24564    2.34449
 1179.35872   27.43343    0.32649    2.24692
 1180.36072   45.22199    0.22112    2.37009
 1181.36273   54.10143    0.28280    2.30161
 1182.36473   51.86194    0.14680    2.51204
 1183.36673   41.09778    0.27816    2.32247
 1184.36874   41.25330    0.21890    2.38974
 1185.37074   42.60263    0.27096    2.34164
 1186.37275   24.72706    0.24592    2.36173
 1187.37475   56.56848    0.26598    2.33944
 1188.37675   63.69157    0.18867    2.40685
 1189.37876   54.49630    0.37565    2.18289
 1190.38076   48.33420    0.22605    2.33888
 1191.38277   33.46662    0.20225    2.40740
 1192.38477   75.80420    0.25289    2.33357
 1193.38677   19.94971    0.20970    2.44339
 1194.38878   50.20797    0.26013    2.33921
 1195.39078   20.26952    0.28941    2.28745
 1196.39279   28.17799    0.27950    2.33258
 1197.39479   60.27261    0.31366    2.27064
 1198.39679   32.04585    0.28707    2.27237
 1199.39880   38.06863    0.19184    2.40650
 1200.40080   47.39791    0.23982    2.35026
 1201.40281   71.54618    0.16111    2.46850
 1202.40481   83.38388    0.27333    2.27877
 1203.40681   35.05771    0.25927    2.35583
 1204.40882   34.03827    0.26473    2.33736
 1205.41082   70.22800    0.20668    2.42894
 1206.41283   56.22997    0.31758    2.26944
 1207.41483   34.05279    0.28778    2.32020
 1208.41683   63.04719    0.26380    2.36018
 1209.41884   55.38370    0.22310    2.36077
 1210.42084   49.12985    0.29244    2.28812
 1211.42285   58.94692    0.32570    2.24874
 1212.42485   54.90641    0.19088    2.40122
 1213.42685   35.91081    0.24986    2.33983
 1214.42886   32.65785    0.29587    2.30342
 1215.43086   67.62252    0.22009    2.39332
 1216.43287   26.79345    0.20652    2.44739
 1217.43487   42.07067    0.28944    2.27566
 1218.43687   27.39015    0.24572    2.35688
 1219.43888   65.63215    0.16570    2.47203
 1220.44088   28.51980    0.29424    2.30034
 1221.44289   34.11656    0.19875    2.41230
 1222.44489   53.76779    0.22014    2.38474
 1223.44689   56.23738    0.19035    2.40526
 1224.44890   25.53538    0.23009    2.33238
 1225.45090   45.93315    0.32547    2.22692
 1226.45291   62.80389    0.21976    2.39571
 1227.45491   29.03810    0.25910    2.30008
 1228.45691   66.23433    0.23693    2.35377
 1229.45892   80.14349    0.24723    2.37402
 1230.46092   66.42126    0.23167    2.35037
 1231.46293   49.29252    0.23042    2.35705
 1232.46493   36.11829    0.29796    2.31651
 1233.46693   57.34193    0.26287    2.33564
 1234.46894   58.15538    0.19621    2.40283
 1235.47094   42.14863    0.30753    2.28515
 1236.47295   60.75858    0.28499    2.29924
 1237.47495   79.91408    0.26927    2.33062
 1238.47695   71.06674    0.26065    2.36400
 1239.47896   47.23238    0.20939    2.40548
 1240.48096   54.34773    0.27223    2.30824
 1241.48297   47.73699    0.28738    2.25859
 1242.48497   66.97222    0.18547    2.40256
 1243.48697   34.42062    0.28493    2.33153
 1244.48898   28.35248    0.20023    2.39077
 1245.49098   84.10386    0.19956    2.44119
 1246.49299   20.66361    0.31097    2.32254
 1247.49499   45.87761    0.28039    2.32879
 1248.49699   81.65897    0.17127    2.43189
 1249.49900   87.47269    0.29563    2.30713
 1250.50100   53.64013    0.20709    2.39863
 1251.50301   67.57881    0.32372    2.23652
 1252.50501   65.37220    0.25577    2.31804
 1253.50701   46.27308    0.23172    2.35794
 1254.50902   61.03885    0.20138    2.39700
 1255.51102   51.37551    0.31351    2.26875
 1256.51303   45.42507    0.31207    2.24718
 1257.51503   69.15575    0.20535    2.42158
 1258.51703   60.24613    0.27248    2.37850
 1259.51904   51.55206    0.27176    2.33415
 1260.52104   78.18074    0.24602    2.39067
 1261.52305   78.74368    0.33612    2.19690
 1262.52505   57.74562    0.23372    2.36331
 1263.52705   68.24305    0.34484    2.24797
 1264.52906   86.25882    0.28414    2.30878
 1265.53106   81.50535    0.22132    2.35167
 1266.53307   94.06762    0.27734    2.34775
 1267.53507   67.47074    0.21020    2.41457
 1268.53707   93.81094    0.28460    2.31768
 1269.53908   53.08208    0.31781    2.24213
 1270.54108   22.10922    0.33239    2.21868
 1271.54309   84.46470    0.26284    2.30132
 1272.54509   47.38741    0.25118    2.34950
 1273.54709   81.45134    0.19942    2.43435
 1274.54910   52.77930    0.28798    2.28679
 1275.55110   69.07387    0.25911    2.36173
 1276.55311   80.27303    0.27604    2.35669
 1277.55511   50.29883    0.31463    2.26156
 1278.55711   73.39950    0.28972    2.30056
 1279.55912   67.72600    0.27284    2.33208
 1280.56112   73.23829    0.31772    2.28902
 1281.56313   66.58035    0.28519    2.37026
 1282.56513   71.88147    0.29133    2.31111
 1283.56713   60.75439    0.26219    2.36027
 1284.56914   74.08636    0.09883    2.54699
 1285.57114   77.04756    0.30167    2.29516
 1286.57315   67.31832    0.17051    2.46325
 1287.57515   67.90714    0.18962    2.42043
 1288.57715   73.54306    0.18076    2.45161
 1289.57916   60.72123    0.25244    2.37024
 1290.58116   76.55639    0.24781    2.32683
 1291.58317   62.74448    0.32869    2.26252
 1292.58517   49.65363    0.27918    2.31683
 1293.58717   57.19754    0.29381    2.29627
 1294.58918   96.07839    0.13017    2.49991
 1295.59118   83.37661    0.29089    2.31545
 1296.59319   91.48541    0.17497    2.42400
 1297.59519   66.10647    0.17656    2.43528
 1298.59719   87.11612    0.26612    2.34171
 1299.59920   83.03958    0.23927    2.34611
 1300.60120   95.99784    0.26140    2.34748
 1301.60321   80.94948    0.25467    2.33501
 1302.60521   78.54154    0.24463    2.35153
 1303.60721   89.44796    0.19242    2.42589
 1304.60922   84.63183    0.21591    2.40188
 1305.61122   93.93722    0.24967    2.33810
 1306.61323   86.74380    0.28038    2.32070
 1307.61523   81.27721    0.18479    2.49203
 1308.61723   63.02741    0.27151    2.31406
 1309.61924   61.97138    0.20835    2.40589
 1310.62124  105.42053    0.23220    2.35335
 1311.62325   85.43891    0.23796    2.40094
 1312.62525   99.91436    0.20315    2.38575
 1313.62725   64.28358    0.10571    2.55624
 1314.62926   68.29885    0.18428    2.42907
 1315.63126   79.34955    0.20444    2.41095
 1316.63327   61.20609    0.31664    2.28036
 1317.63527   81.79309    0.29639    2.27537
 1318.63727   90.09174    0.31823    2.28491
 1319.63928   90.05334    0.26646    2.32451
 1320.64128   87.81397    0.26512    2.33360
 1321.64329   69.96735    0.27365    2.31629
 1322.64529   81.05767    0.25721    2.33698
 1323.64729  101.97492    0.26927    2.31646
 1324.64930   82.04036    0.33362    2.27877
 1325.65130   69.49316    0.30972    2.26294
 1326.65331   77.13103    0.33145    2.26515
 1327.65531   93.99712    0.30140    2.26075
 1328.65731   66.28042    0.15289    2.50163
 1329.65932  111.30267    0.23735    2.37136
 1330.66132   62.92031    0.28033    2.27886
 1331.66333   97.81923    0.21277    2.37474
 1332.66533   89.99017    0.17547    2.43129
 1333.66733   73.88324    0.21886    2.36936
 1334.66934   64.18790    0.24872    2.37821
 1335.67134   69.64279    0.22162    2.36750
 1336.67335   72.27491    0.30356    2.30405
 1337.67535   78.34164    0.32984    2.27751
 1338.67735   67.20834    0.20487    2.41209
 1339.67936   80.83014    0.25790    2.31984
 1340.68136   87.31453    0.19530    2.44358
 1341.68337   72.35069    0.23268    2.33215
 1342.68537   72.52721    0.13163    2.54454
 1343.68737   78.03716    0.39036    2.18656
 1344.68938   79.63362    0.33170    2.21435
 1345.69138   82.33310    0.24876    2.33283
 1346.69339   68.28821    0.24666    2.36820
 1347.69539  108.51016    0.31203    2.28005
 1348.69739   90.06602    0.24848    2.37926
 1349.69940   65.49502    0.25068    2.36843
 1350.70140   95.23654    0.25179    2.35385
 1351.70341   54.85645    0.17545    2.47409
 1352.70541  103.48321    0.27902    2.32582
 1353.70741   94.37834    0.22647    2.39729
 1354.70942   74.04682    0.24046    2.33703
 1355.71142   72.34554    0.20716    2.38234
