~Version ---------------------------------------------------
VERS.   2.0 : CWLS log ASCII Standard -VERSION 2.0
WRAP.    NO : One line per depth step
DLM . SPACE : Column Data Section Delimiter
~Well ------------------------------------------------------
STRT.M 1000.00000 : START DEPTH
STOP.M 1500.00000 : STOP DEPTH
STEP.M    1.00200 : STEP
NULL.     -999.25 : NULL VALUE
COMP.             : COMPANY
WELL.    WELL-007 : WELL
FLD .             : FIELD
LOC .             : LOCATION
PROV.             : PROVINCE
CNTY.             : COUNTY
STAT.             : STATE
CTRY.             : COUNTRY
SRVC.             : SERVICE COMPANY
DATE.             : DATE
UWI .             : UNIQUE WELL ID
API .             : API NUMBER
~Curve Information -----------------------------------------
DEPT.M     : 
GR  .API   : Gamma Ray
NPHI.V/V   : Neutron Porosity
RHOB.G/C3  : Bulk Density
~Params ----------------------------------------------------
~Other -----------------------------------------------------
~ASCII -----------------------------------------------------
# ...
 1178.35671   59.38869    0.17791    2.42292
 1179.35872   35.95886    0.24834    2.35512
 1180.36072   32.50657    0.30157    2.29814
 1181.36273   32.64082    0.22446    2.40630
 1182.36473   35.67344    0.23165    2.37039
 1183.36673   20.52334    0.29055    2.28841
 1184.36874   74.54447    0.22444    2.38146
 1185.37074   44.95822    0.33417    2.24531
 1186.37275   30.27803    0.23116    2.36130
 1187.37475   47.47977    0.28294    2.31067
 1188.37675    7.02967    0.19030    2.39871
 1189.37876   49.84643    0.31227    2.23180
 1190.38076   31.23955    0.29126    2.27568
 1191.38277   43.68542    0.17618    2.42099
 1192.38477   25.72722    0.26794    2.36522
 1193.38677   45.20504    0.28375    2.31581
 1194.38878   25.18100    0.30093    2.27771
 1195.39078   54.75205    0.26535    2.28339
 1196.39279   28.37836    0.14133    2.46266
 1197.39479   53.88756    0.24904    2.36652
 1198.39679   39.96902    0.24765    2.39462
 1199.39880   58.45075    0.19480    2.41242
 1200.40080   34.86378    0.19044    2.46652
 1201.40281   35.97296    0.18685    2.44254
 1202.40481   71.13728    0.34944    2.22842
 1203.40681   50.24368    0.14829    2.45490
 1204.40882   64.73291    0.22937    2.37901
 1205.41082   57.26282    0.28763    2.31900
 1206.41283   41.64121    0.24643    2.34593
 1207.41483   46.96153    0.22622    2.39760
 1208.41683   27.79593    0.26201    2.33465
 1209.41884   56.09064    0.26538    2.34629
 1210.42084   15.95114    0.28787    2.30650
 1211.42285   61.80649    0.25767    2.34649
 1212.42485   28.31009    0.20648    2.44914
 1213.42685   51.81350    0.31151    2.23483
 1214.42886   52.18432    0.27942    2.33901
 1215.43086   45.64659    0.25866    2.35687
 1216.43287   45.32239    0.17514    2.43067
 1217.43487   29.04552    0.12993    2.49743
 1218.43687   37.89215    0.27269    2.32347
 1219.43888   62.76820    0.27229    2.28706
 1220.44088   32.63554    0.18990    2.42288
 1221.44289   48.00014    0.18776    2.42547
 1222.44489   52.08805    0.25272    2.39195
 1223.44689   44.19085    0.29041    2.25715
 1224.44890   53.66537    0.23381    2.37655
 1225.45090   67.72157    0.20919    2.40243
 1226.45291   47.26199    0.24363    2.38249
 1227.45491   28.34538    0.21922    2.34706
 1228.45691   67.64090    0.16963    2.42031
 1229.45892   65.24887    0.33472    2.25020
 1230.46092   54.06623    0.21290    2.41567
 1231.46293   57.55429    0.26290    2.32894
 1232.46493   62.87443    0.19788    2.44608
 1233.46693   25.67649    0.28217    2.30365
 1234.46894   41.30750    0.33020    2.25318
 1235.47094   52.84210    0.17118    2.46555
 1236.47295   35.18444    0.27506    2.35223
 1237.47495   54.56581    0.26745    2.32701
 1238.47695   62.80494    0.29883    2.28789
 1239.47896   39.13715    0.24083    2.37055
 1240.48096   39.55325    0.22933    2.36864
 1241.48297   53.83039    0.17441    2.40622
 1242.48497   67.73877    0.26534    2.36093
 1243.48697   50.12674    0.19569    2.40926
 1244.48898   56.91784    0.25914    2.37090
 1245.49098   52.48340    0.28095    2.32923
 1246.49299   39.60346    0.23201    2.34195
 1247.49499   47.88437    0.18159    2.45184
 1248.49699   41.65366    0.20366    2.41163
 1249.49900   41.64640    0.25635    2.36034
 1250.50100   59.70645    0.28672    2.31049
 1251.50301   72.30807    0.31748    2.23576
 1252.50501   60.43791    0.23215    2.39020
 1253.50701   53.43495    0.32814    2.26308
 1254.50902   57.32969    0.31191    2.27842
 1255.51102   56.65735    0.23544    2.31348
 1256.51303   54.70486    0.24011    2.36710
 1257.51503   58.41299    0.27369    2.29789
 1258.51703   79.05368    0.25516    2.35288
 1259.51904   56.22601    0.18592    2.40831
 1260.52104   38.84782    0.25107    2.31405
 1261.52305   76.64221    0.26119    2.32972
 1262.52505   88.32398    0.25190    2.34802
 1263.52705   61.59156    0.18581    2.47185
 1264.52906   66.97590    0.20235    2.39899
 1265.53106   95.53603    0.13566    2.49121
 1266.53307   54.52610    0.22258    2.37963
 1267.53507   42.40718    0.09025    2.54978
 1268.53707   49.96376    0.20428    2.40202
 1269.53908   74.44946    0.18278    2.41913
 1270.54108   78.16826    0.24287    2.34609
 1271.54309   74.83416    0.22514    2.38103
 1272.54509   76.39348    0.26552    2.32532
 1273.54709   65.61794    0.26847    2.34314
 1274.54910   68.36408    0.30497    2.27135
 1275.55110   59.07543    0.15306    2.44561
 1276.55311   52.66271    0.20584    2.42168
 1277.55511   42.97272    0.21642    2.40743
 1278.55711   76.08139    0.23312    2.39383
 1279.55912   65.54375    0.28221    2.30227
 1280.56112   43.65287    0.24397    2.33138
 1281.56313   45.89991    0.28145    2.30714
 1282.56513   79.14614    0.21453    2.34879
 1283.56713   53.26082    0.20643    2.42138
 1284.56914   56.97942    0.22872    2.40235
 1285.57114   88.23297    0.22047    2.39783
 1286.57315   70.99967    0.26320    2.36864
 1287.57515   61.04425    0.11992    2.51174
 1288.57715   67.16011    0.20178    2.39484
 1289.57916   75.64226    0.32392    2.29971
 1290.58116   72.77045    0.26337    2.35822
 1291.58317   51.77039    0.24388    2.34740
 1292.58517   73.24837    0.23489    2.34829
 1293.58717   42.96543    0.21605    2.36168
 1294.58918   55.90939    0.24791    2.31783
 1295.59118   50.08040    0.26848    2.34481
 1296.59319   90.38793    0.27147    2.29779
 1297.59519   59.11983    0.34317    2.21590
 1298.59719   56.84650    0.21390    2.36576
 1299.59920   97.56374    0.22447    2.36845
 1300.60120   89.30883    0.28230    2.31011
 1301.60321   74.19290    0.25865    2.33875
 1302.60521   82.57509    0.22734    2.37169
 1303.60721   93.20987    0.16810    2.47745
 1304.60922   86.32209    0.17810    2.43432
 1305.61122   48.81219    0.21811    2.42014
 1306.61323   90.30412    0.32613    2.25773
 1307.61523   48.81841    0.18162    2.45440
 1308.61723   84.09856    0.26853    2.32360
 1309.61924   80.42145    0.26725    2.34650
 1310.62124   95.69388    0.21754    2.36772
 1311.62325   69.92087    0.24604    2.34424
 1312.62525   83.09814    0.20878    2.41095
 1313.62725   85.62733    0.29832    2.27369
 1314.62926   89.46392    0.23399    2.36592
 1315.63126   89.16958    0.23707    2.38205
 1316.63327   75.95215    0.31459    2.29796
 1317.63527   88.27759    0.33018    2.25195
 1318.63727   68.36853    0.19722    2.40564
 1319.63928   79.91751    0.18380    2.43107
 1320.64128   90.45437    0.26901    2.32626
 1321.64329   76.09012    0.27028    2.37857
 1322.64529   84.86838    0.23406    2.36583
 1323.64729   81.78970    0.15352    2.48506
 1324.64930   56.79899    0.26692    2.30552
 1325.65130   99.79815    0.21380    2.40784
 1326.65331   60.98844    0.26089    2.26942
 1327.65531   77.99151    0.31253    2.31374
 1328.65731   78.63037    0.29442    2.28756
 1329.65932   53.30282    0.28182    2.32585
 1330.66132   87.24372    0.19871    2.37731
 1331.66333   62.21931    0.29344    2.30171
 1332.66533   76.82929    0.19114    2.39823
 1333.66733   73.14086    0.25992    2.36334
 1334.66934   76.82377    0.20807    2.42922
 1335.67134  106.45719    0.28099    2.34110
 1336.67335   87.98493    0.28197    2.34299
 1337.67535   59.62062    0.28623    2.27755
 1338.67735  112.52718    0.20467    2.35233
 1339.67936   36.38393    0.29122    2.32754
 1340.68136   64.71162    0.22829    2.36667
 1341.68337  107.03202    0.24511    2.35141
 1342.68537   74.22708    0.30525    2.29536
 1343.68737   77.52509    0.26867    2.32279
 1344.68938   74.72533    0.31973    2.29790
 1345.69138   51.84355    0.21938    2.38887
 1346.69339   77.09552    0.20002    2.38572
 1347.69539   77.59940    0.25767    2.36706
 1348.69739   78.80747    0.27964    2.31963
 1349.69940   82.31488    0.32530    2.22583
 1350.70140   96.73948    0.25437    2.34928
 1351.70341   88.65813    0.20300    2.43250
 1352.70541   82.63226    0.27775    2.31418
 1353.70741   77.32009    0.26886    2.31036
 1354.70942   70.62211    0.23786    2.37662
 1355.71142   98.91414    0.32688    2.23703
