~Version ---------------------------------------------------
VERS.   2.0 : CWLS log ASCII Standard -VERSION 2.0
WRAP.    NO : One line per depth step
DLM . SPACE : Column Data Section Delimiter
~Well ------------------------------------------------------
STRT.M 1000.00000 : START DEPTH
STOP.M 1500.00000 : STOP DEPTH
STEP.M    1.00200 : STEP
NULL.     -999.25 : NULL VALUE
COMP.             : COMPANY
WELL.    WELL-010 : WELL
FLD .             : FIELD
LOC .             : LOCATION
PROV.             : PROVINCE
CNTY.             : COUNTY
STAT.             : STATE
CTRY.             : COUNTRY
SRVC.             : SERVICE COMPANY
DATE.             : DATE
UWI .             : UNIQUE WELL ID
API .             : API NUMBER
~Curve Information -----------------------------------------
DEPT .M     : 
GAMMA.API   : Gamma Ray
NPHI .V/V   : Neutron Porosity
RHOB .G/C3  : Bulk Density
~Params ----------------------------------------------------
~Other -----------------------------------------------------
~ASCII -----------------------------------------------------
# ...
 1356.71343   80.91221    0.17073    2.45589
 1357.71543   71.48928    0.24468    2.36479
 1358.71743  103.54823    0.24366    2.35956
 1359.71944   70.19254    0.32490    2.24042
 1360.72144   79.37591    0.25057    2.31831
 1361.72345   97.90390    0.23340    2.38954
 1362.72545   81.92896    0.33191    2.22748
 1363.72745   71.21781    0.22783    2.37782
 1364.72946   86.05267    0.21467    2.38023
 1365.73146   45.17901    0.30679    2.27569
 1366.73347   53.19885    0.17039    2.44748
 1367.73547   46.52527    0.23853    2.36238
 1368.73747   82.95731    0.34864    2.24448
 1369.73948  100.29853    0.25130    2.32824
 1370.74148   85.01922    0.23391    2.40934
 1371.74349   79.13153    0.22908    2.38495
 1372.74549   83.75013    0.32981    2.27292
 1373.74749   63.40585    0.27768    2.33404
 1374.74950   79.43146    0.26835    2.35141
 1375.75150   75.88316    0.32233    2.26642
 1376.75351   85.70053    0.24153    2.35343
 1377.75551   70.90648    0.19293    2.41478
 1378.75752   70.04470    0.25046    2.36118
 1379.75952   76.36794    0.25477    2.37159
 1380.76152   88.81059    0.20533    2.44500
 1381.76353   75.82304    0.28341    2.33517
 1382.76553   49.66535    0.29765    2.28481
 1383.76754   82.81466    0.24088    2.35132
 1384.76954   93.83255    0.27448    2.30507
 1385.77154   81.10424    0.23689    2.35662
 1386.77355   84.66044    0.18639    2.43723
 1387.77555   82.30652    0.28944    2.32198
 1388.77756   66.70783    0.21702    2.40026
 1389.77956   59.43700    0.28321    2.28539
 1390.78156   38.89667    0.32637    2.25987
 1391.78357   51.30188    0.23257    2.34710
 1392.78557   63.92189    0.18410    2.41817
 1393.78758   18.18869    0.28197    2.29397
 1394.78958   68.93251    0.17700    2.41972
 1395.79158   59.66244    0.16423    2.47579
 1396.79359   61.20687    0.27084    2.30063
 1397.79559   64.54898    0.21078    2.42795
 1398.79760   80.11454    0.25145    2.36156
 1399.79960   79.74618    0.30665    2.28811
 1400.80160   50.13887    0.27662    2.31598
 1401.80361   64.25826    0.33553    2.21907
 1402.80561   83.74307    0.28003    2.33575
 1403.80762   56.49431    0.26297    2.29941
 1404.80962   52.37605    0.31379    2.27791
 1405.81162   35.83335    0.20712    2.44121
 1406.81363   55.54758    0.30844    2.28851
 1407.81563   45.62043    0.21444    2.38785
 1408.81764   60.51364    0.14270    2.44537
 1409.81964   61.39743    0.22221    2.36907
 1410.82164   53.60887    0.25276    2.33317
 1411.82365   62.55731    0.26591    2.30699
 1412.82565   50.25751    0.27668    2.33469
 1413.82766   58.97870    0.33396    2.24412
 1414.82966   44.19961    0.29415    2.29062
 1415.83166   73.04102    0.15392    2.44261
 1416.83367   23.92761    0.27093    2.35043
 1417.83567   76.73755    0.16085    2.46671
 1418.83768   87.66652    0.31376    2.22872
 1419.83968   63.77383    0.19212    2.43858
 1420.84168   64.53542    0.31288    2.24793
 1421.84369   36.39411    0.18813    2.43941
 1422.84569   68.22665    0.23419    2.36519
 1423.84770   57.16330    0.19553    2.37273
 1424.84970   52.23880    0.21616    2.37711
 1425.85170   85.01114    0.31706    2.27286
 1426.85371   49.15418    0.27618    2.29704
 1427.85571   48.44043    0.22279    2.38033
 1428.85772   24.67218    0.27225    2.34352
 1429.85972   64.77836    0.18479    2.42385
 1430.86172   34.87486    0.20998    2.37212
 1431.86373   61.25475    0.21218    2.42835
 1432.86573   38.36838    0.23567    2.36211
 1433.86774   43.53096    0.31001    2.28162
 1434.86974   58.70013    0.21531    2.39227
 1435.87174   81.98000    0.36596    2.15224
 1436.87375   53.11871    0.22488    2.41198
 1437.87575   33.90668    0.30209    2.27776
 1438.87776   63.06926    0.29242    2.25693
 1439.87976   52.75885    0.21287    2.37179
 1440.88176   92.70954    0.24119    2.35939
 1441.88377   53.70236    0.31365    2.27650
 1442.88577   44.71849    0.38238    2.15680
 1443.88778   55.61937    0.22265    2.39743
 1444.88978   41.70675    0.29914    2.31504
 1445.89178   57.95813    0.27149    2.30886
 1446.89379   20.92446    0.21276    2.42332
 1447.89579   38.77586    0.24727    2.36187
 1448.89780   34.51365    0.24190    2.33757
 1449.89980   48.71655    0.26953    2.33279
 1450.90180   43.98009    0.36461    2.19492
 1451.90381   60.15323    0.23693    2.39344
 1452.90581   22.13083    0.25403    2.36862
 1453.90782   41.03525    0.26483    2.34948
 1454.90982   39.48790    0.40403    2.15598
 1455.91182   64.26208    0.21504    2.39109
 1456.91383   23.08007    0.26222    2.34053
 1457.91583   47.97103    0.26568    2.34827
 1458.91784   31.24803    0.17874    2.43295
 1459.91984   54.90427    0.23451    2.34877
 1460.92184   51.27353    0.29663    2.28358
 1461.92385   46.57325    0.26208    2.32914
 1462.92585   13.49502    0.18341    2.43160
 1463.92786   49.28190    0.20982    2.38774
 1464.92986   33.48790    0.19550    2.43322
 1465.93186   68.25895    0.35312    2.22284
 1466.93387   48.85171    0.24373    2.32879
 1467.93587   77.97056    0.20015    2.40053
 1468.93788   51.66909    0.19927    2.40289
 1469.93988   60.93670    0.34872    2.22508
 1470.94188   36.90437    0.21500    2.38080
 1471.94389   24.76952    0.36232    2.20651
 1472.94589   42.99824    0.23981    2.35819
 1473.94790   50.80506    0.28489    2.31521
 1474.94990   45.33938    0.21472    2.37461
 1475.95190   50.04850    0.21828    2.39584
 1476.95391    1.86161    0.32928    2.24305
 1477.95591   47.69151    0.22490    2.37640
 1478.95792   44.05572    0.19060    2.39819
 1479.95992   42.35951    0.28733    2.28604
 1480.96192   25.54269    0.26031    2.34405
 1481.96393   34.57706    0.31676    2.25457
 1482.96593   25.27433    0.29325    2.27141
 1483.96794   43.42775    0.25767    2.33451
 1484.96994   44.61926    0.16817    2.42375
 1485.97194   35.29779    0.21580    2.36038
 1486.97395   44.13609    0.21659    2.37766
 1487.97595   36.81339    0.29474    2.26590
 1488.97796   40.84660    0.25979    2.34111
 1489.97996   35.34396    0.31541    2.28160
 1490.98196   30.08187    0.28184    2.31873
 1491.98397   66.56186    0.28982    2.34343
 1492.98597   47.55946    0.30759    2.26227
 1493.98798   57.01539    0.21668    2.39535
 1494.98998   18.96164    0.20442    2.40781
 1495.99198   32.68127    0.25327    2.35241
 1496.99399   71.16904    0.27056    2.34115
 1497.99599   43.36113    0.26203    2.31388
 1498.99800   46.75441    0.32356    2.25338
 1500.00000   33.92467    0.32662    2.27706
