~Version ---------------------------------------------------
VERS.   2.0 : CWLS log ASCII Standard -VERSION 2.0
WRAP.    NO : One line per depth step
DLM . SPACE : Column Data Section Delimiter
~Well ------------------------------------------------------
STRT.M 1000.00000 : START DEPTH
STOP.M 1500.00000 : STOP DEPTH
STEP.M    1.00200 : STEP
NULL.     -999.25 : NULL VALUE
COMP.             : COMPANY
WELL.    WELL-002 : WELL
FLD .             : FIELD
LOC .             : LOCATION
PROV.             : PROVINCE
CNTY.             : COUNTY
STAT.             : STATE
CTRY.             : COUNTRY
SRVC.             : SERVICE COMPANY
DATE.             : DATE
UWI .             : UNIQUE WELL ID
API .             : API NUMBER
~Curve Information -----------------------------------------
DEPT .M     : 
GAMMA.API   : Gamma Ray
NEUT .V/V   : Neutron Porosity
DENS .G/C3  : Bulk Density
~Params ----------------------------------------------------
~Other -----------------------------------------------------
~ASCII -----------------------------------------------------
# ...
 1178.35671   37.51967    0.31313    2.27284
 1179.35872   40.89623    0.25587    2.33647
 1180.36072   27.10789    0.26704    2.33116
 1181.36273   58.57357    0.30138    2.29043
 1182.36473   36.27450    0.26108    2.31987
 1183.36673   32.89066    0.35822    2.19786
 1184.36874   44.55320    0.23194    2.33907
 1185.37074   32.24300    0.32230    2.25190
 1186.37275   63.02614    0.23451    2.35953
 1187.37475   38.06378    0.26731    2.33954
 1188.37675   34.54478    0.23219    2.40952
 1189.37876   46.25860    0.22831    2.38890
 1190.38076   34.44845    0.24833    2.40232
 1191.38277   25.43396    0.30582    2.28821
 1192.38477   48.50651    0.27554    2.33064
 1193.38677   47.75202    0.20652    2.42872
 1194.38878   64.17653    0.18781    2.41489
 1195.39078   52.68655    0.27620    2.28964
 1196.39279   41.79217    0.27888    2.31028
 1197.39479   30.31362    0.19025    2.44164
 1198.39679   27.04436    0.26494    2.36674
 1199.39880   33.05080    0.26489    2.33908
 1200.40080   43.24851    0.17478    2.44037
 1201.40281   47.47934    0.28229    2.33867
 1202.40481   40.42725    0.27037    2.29795
 1203.40681   48.60453    0.16267    2.46232
 1204.40882   54.67673    0.33016    2.30017
 1205.41082   40.64323    0.28624    2.31134
 1206.41283   74.24052    0.20797    2.37238
 1207.41483   74.79593    0.21106    2.38788
 1208.41683   16.52383    0.20673    2.39688
 1209.41884   46.05392    0.31961    2.29180
 1210.42084   57.86203    0.28980    2.29685
 1211.42285   36.47987    0.29269    2.28193
 1212.42485   22.77810    0.20604    2.36478
 1213.42685   41.37642    0.23306    2.38135
 1214.42886   46.10630    0.21022    2.38844
 1215.43086   45.11469    0.19466    2.40750
 1216.43287   28.35943    0.26662    2.34306
 1217.43487   37.22021    0.26798    2.30267
 1218.43687   24.32153    0.20965    2.35081
 1219.43888   54.44284    0.23344    2.39936
 1220.44088   50.00121    0.19248    2.42867
 1221.44289   56.22565    0.23955    2.39288
 1222.44489   56.94819    0.25905    2.34490
 1223.44689   49.88478    0.24510    2.35476
 1224.44890   38.63963    0.27899    2.31419
 1225.45090   94.66766    0.18247    2.44640
 1226.45291   46.95817    0.27861    2.33540
 1227.45491   42.29935    0.27321    2.30665
 1228.45691   62.35698    0.24883    2.34809
 1229.45892   63.71146    0.29756    2.27090
 1230.46092   67.70456    0.29271    2.28155
 1231.46293   39.48888    0.23006    2.38567
 1232.46493   59.71776    0.21977    2.34750
 1233.46693   46.56375    0.25616    2.36946
 1234.46894   91.14747    0.27801    2.32332
 1235.47094   68.50584    0.26834    2.29235
 1236.47295   68.49926    0.20219    2.40492
 1237.47495   70.70790    0.23122    2.37564
 1238.47695   48.94535    0.19744    2.39539
 1239.47896   52.85096    0.23838    2.33670
 1240.48096    9.55795    0.34450    2.26369
 1241.48297   50.34124    0.26217    2.31158
 1242.48497   71.82479    0.29195    2.29463
 1243.48697   55.55242    0.25930    2.35917
 1244.48898   35.28272    0.34401    2.25821
 1245.49098   53.86341    0.29871    2.30342
 1246.49299   30.85696    0.22954    2.40594
 1247.49499   36.60242    0.22234    2.37586
 1248.49699   71.94512    0.23903    2.33953
 1249.49900   51.02686    0.24182    2.36968
 1250.50100   66.62262    0.21602    2.39981
 1251.50301   64.80233    0.30737    2.29189
 1252.50501   67.49164    0.17928    2.45208
 1253.50701   59.26142    0.27774    2.30710
 1254.50902   49.12601    0.22490    2.40323
 1255.51102   41.68160    0.20127    2.39847
 1256.51303   89.41536    0.32141    2.26875
 1257.51503   87.61572    0.28390    2.32232
 1258.51703   60.12863    0.24451    2.36163
 1259.51904   44.01895    0.34875    2.21084
 1260.52104   58.19192    0.22903    2.35558
 1261.52305   43.99910    0.23196    2.38926
 1262.52505   65.13995    0.30745    2.22700
 1263.52705   71.34474    0.28289    2.30981
 1264.52906   62.61154    0.26695    2.33382
 1265.53106   84.92633    0.26437    2.38199
 1266.53307   68.77815    0.22487    2.39218
 1267.53507   79.97721    0.20798    2.38330
 1268.53707   76.62845    0.21714    2.38449
 1269.53908   74.07542    0.29907    2.29338
 1270.54108   88.43483    0.29351    2.27515
 1271.54309   61.80107    0.28885    2.28812
 1272.54509   64.80901    0.25383    2.34697
 1273.54709   78.97103    0.28135    2.29798
 1274.54910   99.94128    0.23702    2.36752
 1275.55110   65.29603    0.29994    2.33885
 1276.55311   70.23569    0.31139    2.24453
 1277.55511   61.54907    0.26148    2.34950
 1278.55711   60.18685    0.33917    2.24145
 1279.55912   85.39233    0.25040    2.35262
 1280.56112   77.24839    0.27321    2.30231
 1281.56313   83.59572    0.22756    2.35722
 1282.56513   64.04674    0.14603    2.44384
 1283.56713   49.09996    0.12969    2.49292
 1284.56914   72.46297    0.23198    2.40022
 1285.57114   75.19409    0.20609    2.42034
 1286.57315   81.63162    0.24050    2.35684
 1287.57515   94.26652    0.28569    2.31434
 1288.57715   50.78311    0.22884    2.34888
 1289.57916   75.97254    0.26484    2.35748
 1290.58116   68.57352    0.16458    2.44159
 1291.58317   74.72628    0.25824    2.31551
 1292.58517   67.89359    0.28185    2.34095
 1293.58717   70.07115    0.19648    2.41701
 1294.58918   68.09674    0.22493    2.40533
 1295.59118   71.44302    0.13277    2.47487
 1296.59319   94.84740    0.27216    2.30427
 1297.59519   84.97573    0.19075    2.43908
 1298.59719   61.05490    0.32870    2.25870
 1299.59920   82.12359    0.19948    2.34727
 1300.60120   82.87857    0.25760    2.32737
 1301.60321   91.96130    0.14634    2.43042
 1302.60521   68.38779    0.29473    2.29524
 1303.60721   55.59039    0.30108    2.30051
 1304.60922   77.05206    0.31179    2.25399
 1305.61122   63.95368    0.20265    2.41826
 1306.61323  105.00513    0.23309    2.35841
 1307.61523   81.10222    0.19911    2.45395
 1308.61723   81.15083    0.32901    2.24654
 1309.61924   78.40067    0.20965    2.38597
 1310.62124   91.76318    0.28642    2.30351
 1311.62325   65.13906    0.26324    2.35392
 1312.62525   86.73700    0.25619    2.35205
 1313.62725  103.28355    0.28544    2.30357
 1314.62926  102.45674    0.23439    2.36600
 1315.63126   94.80872    0.27772    2.30178
 1316.63327   85.65086    0.22716    2.36126
 1317.63527   72.78623    0.14891    2.45139
 1318.63727   85.74578    0.27445    2.31270
 1319.63928   64.73443    0.26774    2.34098
 1320.64128   86.67432    0.24830    2.34532
 1321.64329   95.86508    0.29633    2.28889
 1322.64529   96.46427    0.28367    2.32892
 1323.64729   86.00934    0.24314    2.34927
 1324.64930   89.78855    0.29475    2.30903
 1325.65130   81.72764    0.25991    2.33390
 1326.65331   70.00610    0.23290    2.39185
 1327.65531   98.88722    0.31479    2.29543
 1328.65731   95.90589    0.23380    2.37931
 1329.65932   88.08076    0.28492    2.32474
 1330.66132   90.29397    0.20513    2.39158
 1331.66333   72.51350    0.25991    2.33768
 1332.66533   72.34892    0.29087    2.27043
 1333.66733   79.23641    0.27164    2.34211
 1334.66934   76.64689    0.26317    2.31862
 1335.67134  100.04690    0.18733    2.44270
 1336.67335   72.73651    0.22555    2.37349
 1337.67535  100.10035    0.28340    2.33657
 1338.67735   51.93106    0.24162    2.39420
 1339.67936  103.23049    0.27865    2.30323
 1340.68136   88.59521    0.29727    2.29900
 1341.68337   72.71300    0.21195    2.38008
 1342.68537   83.63595    0.24128    2.36572
 1343.68737   66.67869    0.29813    2.31965
 1344.68938   88.62769    0.31560    2.27385
 1345.69138   86.11342    0.30497    2.28159
 1346.69339   73.11325    0.35544    2.22584
 1347.69539   58.26520    0.27906    2.31822
 1348.69739   70.68231    0.23400    2.35358
 1349.69940   87.51306    0.28069    2.34263
 1350.70140   69.78740    0.27499    2.33330
 1351.70341   76.88562    0.33206    2.25182
 1352.70541   88.98706    0.33271    2.22628
 1353.70741   83.80482    0.13133    2.51495
 1354.70942   80.04604    0.28742    2.34052
 1355.71142   84.49559    0.26635    2.31427
