~Version ---------------------------------------------------
VERS.   2.0 : CWLS log ASCII Standard -VERSION 2.0
WRAP.    NO : One line per depth step
DLM . SPACE : Column Data Section Delimiter
~Well ------------------------------------------------------
STRT.M 1000.00000 : START DEPTH
STOP.M 1500.00000 : STOP DEPTH
STEP.M    1.00200 : STEP
NULL.     -999.25 : NULL VALUE
COMP.             : COMPANY
WELL.    WELL-003 : WELL
FLD .             : FIELD
LOC .             : LOCATION
PROV.             : PROVINCE
CNTY.             : COUNTY
STAT.             : STATE
CTRY.             : COUNTRY
SRVC.             : SERVICE COMPANY
DATE.             : DATE
UWI .             : UNIQUE WELL ID
API .             : API NUMBER
~Curve Information -----------------------------------------
DEPT      .M     : 
G.R.      .API   : Gamma Ray
NPHI_V1   .V/V   : Neutron Porosity
RHOB_FINAL.G/C3  : Bulk Density
~Params ----------------------------------------------------
~Other -----------------------------------------------------
~ASCII -----------------------------------------------------
 1000.00000   75.90522    0.21071    2.41039
 1001.00200   71.43886    0.22585    2.35104
 1002.00401   80.68447    0.16903    2.47296
 1003.00601   70.23558    0.16812    2.48619
 1004.00802   72.40644    0.27944    2.29223
 1005.01002   80.47206    0.20875    2.37564
 1006.01202   81.78057    0.27310    2.30369
 1007.01403   83.12289    0.19948    2.45219
 1008.01603   54.55712    0.30795    2.29498
 1009.01804   65.85757    0.31365    2.29258
 1010.02004   80.83518    0.20268    2.42544
 1011.02204   68.01496    0.26119    2.33833
 1012.02405   87.09259    0.19219    2.40271
 1013.02605   90.20751    0.32951    2.23840
 1014.02806   71.26723    0.28193    2.30901
 1015.03006   55.99071    0.28488    2.32815
 1016.03206   85.42781    0.25303    2.31939
 1017.03407   87.68692    0.25495    2.33935
 1018.03607   76.17109    0.20827    2.41999
 1019.03808   71.97245    0.31739    2.26008
 1020.04008  107.52613    0.32977    2.24822
 1021.04208   60.20100    0.31102    2.29963
 1022.04409   50.04748    0.27290    2.30387
 1023.04609   83.72427    0.19605    2.42029
 1024.04810   43.37167    0.24174    2.36366
 1025.05010   98.82396    0.19292    2.43505
 1026.05210   74.49453    0.28224    2.30243
 1027.05411   69.34250    0.24144    2.35495
 1028.05611   95.42178    0.23497    2.33744
 1029.05812   72.49621    0.24831    2.33552
 1030.06012   97.38328    0.27879    2.33385
 1031.06212   98.95237    0.26005    2.35739
 1032.06413   94.04242    0.22807    2.38602
 1033.06613   89.20690    0.25109    2.36956
 1034.06814   95.63487    0.20097    2.40259
 1035.07014   87.36108    0.35243    2.18436
 1036.07214   50.89602    0.36510    2.20268
 1037.07415   80.91558    0.25959    2.33784
 1038.07615   91.53538    0.27318    2.31802
 1039.07816   63.77269    0.25945    2.34886
 1040.08016  105.85578    0.19438    2.41998
 1041.08216   50.16370    0.34305    2.23843
 1042.08417  102.08958    0.28020    2.32665
 1043.08617   80.48821    0.20767    2.34859
 1044.08818   85.42292    0.26911    2.34394
 1045.09018   71.45801    0.25401    2.33845
 1046.09218   43.72955    0.22338    2.34253
 1047.09419   80.26657    0.24756    2.32977
 1048.09619   70.68687    0.20123    2.41595
 1049.09820   73.66386    0.15437    2.42927
 1050.10020   96.15204    0.27805    2.32485
 1051.10220   62.87204    0.23096    2.36500
 1052.10421   72.11028    0.24487    2.36390
 1053.10621   55.17527    0.30123    2.28078
 1054.10822   78.96644    0.26292    2.34508
 1055.11022   72.96403    0.12911    2.50180
 1056.11222  102.14310    0.28933    2.30305
 1057.11423   73.21510    0.27921    2.29161
 1058.11623   86.61416    0.18759    2.43602
 1059.11824   48.27050    0.22708    2.38649
 1060.12024   75.20153    0.29380    2.29344
 1061.12224   79.21755    0.22810    2.35373
 1062.12425   88.78977    0.32242    2.26545
 1063.12625   95.51495    0.22979    2.38631
 1064.12826   66.93159    0.22873    2.39397
 1065.13026   89.10397    0.22473    2.37844
 1066.13226   77.03637    0.23026    2.38003
 1067.13427   92.19109    0.27331    2.33311
 1068.13627  108.12894    0.19587    2.38940
 1069.13828   80.82270    0.32309    2.26114
 1070.14028   87.42333    0.21220    2.45458
 1071.14228   70.81501    0.26531    2.33667
 1072.14429   74.71062    0.22766    2.41981
 1073.14629   72.35437    0.21808    2.40852
 1074.14830   63.55831    0.25228    2.29707
 1075.15030   68.58457    0.15462    2.47345
 1076.15230   52.15489    0.26264    2.33637
 1077.15431   96.50934    0.20311    2.41002
 1078.15631   64.47548    0.22524    2.35388
 1079.15832   74.39095    0.22659    2.37849
 1080.16032   52.00956    0.26164    2.35779
 1081.16232   35.77611    0.21149    2.38870
 1082.16433   45.90696    0.32355    2.23783
 1083.16633   81.06922    0.26443    2.34941
 1084.16834   61.41914    0.29043    2.32186
 1085.17034   86.77469    0.34506    2.23618
 1086.17234   46.65393    0.28527    2.33273
 1087.17435   63.98987    0.19465    2.41544
 1088.17635   61.03643    0.15641    2.46902
 1089.17836   68.00634    0.27565    2.28591
 1090.18036   39.88891    0.14298    2.50924
 1091.18236   63.34441    0.25403    2.31949
 1092.18437   59.40156    0.22125    2.35003
 1093.18637   69.29398    0.25885    2.33313
 1094.18838   53.79130    0.27706    2.35259
 1095.19038   24.80496    0.21453    2.38573
 1096.19238   86.08923    0.21884    2.37454
 1097.19439   44.35798    0.25398    2.32458
 1098.19639   49.32599    0.30582    2.30035
 1099.19840   74.08232    0.19767    2.41923
 1100.20040   62.68776    0.22596    2.36438
 1101.20240   58.68221    0.18804    2.42398
 1102.20441   65.83256    0.25355    2.33175
 1103.20641   55.12161    0.21212    2.35288
 1104.20842   53.68675    0.26667    2.32193
 1105.21042   63.05119    0.28690    2.31112
 1106.21242   62.28007    0.24151    2.35172
 1107.21443   54.42217    0.25662    2.30682
 1108.21643   54.21342    0.29123    2.29115
 1109.21844   52.11708    0.19212    2.43684
 1110.22044   80.16444    0.26581    2.34256
 1111.22244   56.31834    0.24378    2.36097
 1112.22445   51.92071    0.33383    2.26468
 1113.22645   61.31606    0.19368    2.42926
 1114.22846   51.05687    0.24710    2.34853
 1115.23046   38.18702    0.26832    2.33295
 1116.23246   71.36450    0.21400    2.41219
 1117.23447   47.61628    0.28293    2.32031
 1118.23647   35.50830    0.23007    2.32467
 1119.23848   38.78693    0.28489    2.31774
 1120.24048   37.68593    0.25921    2.32518
 1121.24248   47.47562    0.28102    2.30567
 1122.24449   45.86298    0.29493    2.24022
 1123.24649   35.48619    0.31458    2.26316
 1124.24850   65.64008    0.28769    2.31642
 1125.25050   51.07196    0.29209    2.31483
 1126.25251   49.80353    0.21955    2.39988
 1127.25451   45.73990    0.19474    2.41825
 1128.25651   45.12379    0.33812    2.20954
 1129.25852   33.51336    0.24023    2.36401
 1130.26052   18.11592    0.36020    2.23284
 1131.26253   34.78875    0.23115    2.36698
 1132.26453   58.12113    0.21084    2.36219
 1133.26653   55.99497    0.25330    2.32789
 1134.26854   22.26317    0.19070    2.45711
 1135.27054   42.35309    0.26351    2.32976
 1136.27255   41.85840    0.28137    2.28863
 1137.27455   57.50353    0.26376    2.32863
 1138.27655   47.06407    0.27357    2.31253
 1139.27856   24.60629    0.21700    2.35548
 1140.28056   31.98736    0.32267    2.27558
 1141.28257   52.20290    0.24506    2.36703
 1142.28457   35.37112    0.26414    2.31179
 1143.28657   31.58982    0.29116    2.26849
 1144.28858   43.24109    0.30812    2.27194
 1145.29058   45.44905    0.30606    2.29784
 1146.29259   45.64179    0.22135    2.37750
 1147.29459   54.30719    0.24541    2.35011
 1148.29659   21.81007    0.18391    2.44034
 1149.29860   40.10242    0.18860    2.45561
 1150.30060   30.96649    0.25159    2.32154
 1151.30261   41.34947    0.33214    2.27401
 1152.30461   77.81642    0.29749    2.28738
 1153.30661   40.51437    0.17731    2.41829
 1154.30862   35.68961    0.24378    2.37827
 1155.31062   46.22116    0.24416    2.37119
 1156.31263   40.65282    0.32881    2.26627
 1157.31463   39.79172    0.29112    2.31057
 1158.31663   45.01736    0.27957    2.31295
 1159.31864   55.00211    0.17190    2.43360
 1160.32064   40.31178    0.19022    2.39331
 1161.32265   35.36013    0.35290    2.22833
 1162.32465   33.70750    0.28591    2.31755
 1163.32665   56.56265    0.31975    2.27586
 1164.32866   32.28407    0.20472    2.40037
 1165.33066   26.03643    0.23581    2.39237
 1166.33267   44.43562    0.21433    2.40492
 1167.33467   37.25106    0.27670    2.31676
 1168.33667   52.73436    0.20838    2.42047
 1169.33868   33.97232    0.26914    2.34742
 1170.34068   49.22821    0.33654    2.23941
 1171.34269   29.53434    0.28852    2.29687
 1172.34469   64.43893    0.21951    2.37818
 1173.34669   40.14713    0.23334    2.41517
 1174.34870   54.40345    0.28790    2.31551
 1175.35070   44.21320    0.29084    2.28616
 1176.35271   21.12170    0.18238    2.43588
 1177.35471   37.53183    0.20980    2.42306
