~Version ---------------------------------------------------
VERS.   2.0 : CWLS log ASCII Standard -VERSION 2.0
WRAP.    NO : One line per depth step
DLM . SPACE : Column Data Section Delimiter
~Well ------------------------------------------------------
STRT.M 1000.00000 : START DEPTH
STOP.M 1500.00000 : STOP DEPTH
STEP.M    1.00200 : STEP
NULL.     -999.25 : NULL VALUE
COMP.             : COMPANY
WELL.    WELL-001 : WELL
FLD .             : FIELD
LOC .             : LOCATION
PROV.             : PROVINCE
CNTY.             : COUNTY
STAT.             : STATE
CTRY.             : COUNTRY
SRVC.             : SERVICE COMPANY
DATE.             : DATE
UWI .             : UNIQUE WELL ID
API .             : API NUMBER
~Curve Information -----------------------------------------
DEPT.M     : 
GR  .API   : Gamma Ray
NPHI.V/V   : Neutron Porosity
RHOB.G/C3  : Bulk Density
~Params ----------------------------------------------------
~Other -----------------------------------------------------
~ASCII -----------------------------------------------------
# ...
 1178.35671   54.69078    0.31254    2.24048
 1179.35872   21.31758    0.17723    2.40194
 1180.36072   46.06367    0.25107    2.36700
 1181.36273   38.06381    0.23193    2.38400
 1182.36473   66.08610    0.32728    2.28659
 1183.36673   46.10176    0.33961    2.26911
 1184.36874   39.88585    0.28799    2.35705
 1185.37074   48.35258    0.28272    2.32186
 1186.37275   26.98340    0.24938    2.34814
 1187.37475   36.76461    0.28668    2.31097
 1188.37675   49.19497    0.22821    2.40222
 1189.37876   34.18391    0.30060    2.28836
 1190.38076   38.85859    0.17681    2.41883
 1191.38277   21.38848    0.27329    2.31918
 1192.38477   54.03961    0.22444    2.37198
 1193.38677   27.44628    0.30117    2.28133
 1194.38878   43.60439    0.22103    2.38836
 1195.39078   32.46094    0.26977    2.30195
 1196.39279   63.50978    0.14972    2.46416
 1197.39479   32.55970    0.21085    2.39493
 1198.39679   59.04874    0.27290    2.33314
 1199.39880   53.55997    0.24753    2.32978
 1200.40080   46.15467 -999.25000    2.41860
 1201.40281   53.94964 -999.25000    2.36386
 1202.40481   52.77582 -999.25000    2.43912
 1203.40681   30.37948 -999.25000    2.32093
 1204.40882   53.02594 -999.25000    2.32875
 1205.41082   27.64143 -999.25000    2.31673
 1206.41283   85.77206 -999.25000    2.32673
 1207.41483   53.03273 -999.25000    2.39961
 1208.41683   37.56028 -999.25000    2.36387
 1209.41884   26.16216 -999.25000    2.35308
 1210.42084   44.90802 -999.25000    2.46644
 1211.42285   41.85193 -999.25000    2.24543
 1212.42485   49.54129 -999.25000    2.41145
 1213.42685   19.87605 -999.25000    2.42370
 1214.42886   56.87340 -999.25000    2.30112
 1215.43086   39.40945 -999.25000    2.38079
 1216.43287   26.16299 -999.25000    2.34969
 1217.43487   50.98071 -999.25000    2.17348
 1218.43687   29.74704 -999.25000    2.28817
 1219.43888   32.86789 -999.25000    2.31500
 1220.44088   76.97315 -999.25000    2.33077
 1221.44289   42.01117 -999.25000    2.38725
 1222.44489   65.05610 -999.25000    2.37511
 1223.44689   21.95526 -999.25000    2.34626
 1224.44890   67.63556 -999.25000    2.33425
 1225.45090   36.99252 -999.25000    2.44142
 1226.45291   50.75914 -999.25000    2.32734
 1227.45491   63.17093 -999.25000    2.33765
 1228.45691   23.92930 -999.25000    2.36159
 1229.45892   60.17572 -999.25000    2.33484
 1230.46092   53.15076 -999.25000    2.37098
 1231.46293   38.33279 -999.25000    2.33376
 1232.46493   52.76333 -999.25000    2.43982
 1233.46693   57.54542 -999.25000    2.28992
 1234.46894   84.78694 -999.25000    2.32925
 1235.47094   27.88930 -999.25000    2.27614
 1236.47295   80.22268 -999.25000    2.32395
 1237.47495   53.51206 -999.25000    2.35220
 1238.47695   49.88167 -999.25000    2.32688
 1239.47896   56.52267 -999.25000    2.39749
 1240.48096   78.36919 -999.25000    2.39586
 1241.48297   60.97078 -999.25000    2.26354
 1242.48497   80.51065 -999.25000    2.36043
 1243.48697   51.81503 -999.25000    2.30665
 1244.48898   83.22332 -999.25000    2.46371
 1245.49098   39.81145 -999.25000    2.34513
 1246.49299   64.86790 -999.25000    2.37267
 1247.49499   67.68269 -999.25000    2.34313
 1248.49699   52.28550 -999.25000    2.28613
 1249.49900   71.73140 -999.25000    2.33000
 1250.50100   55.70753    0.23461    2.37237
 1251.50301   77.70721    0.24280    2.33363
 1252.50501   77.13142    0.31981    2.28019
 1253.50701   56.07990    0.32558    2.27400
 1254.50902   64.06348    0.23609    2.38107
 1255.51102   67.75704    0.18155    2.43524
 1256.51303   69.66157    0.26597    2.31969
 1257.51503   40.85917    0.22689    2.36186
 1258.51703   56.25402    0.22985    2.38442
 1259.51904   45.37218    0.23462    2.36615
 1260.52104   50.31819    0.23519    2.38639
 1261.52305   51.49338    0.31138    2.27111
 1262.52505   49.11174    0.23121    2.36643
 1263.52705   73.95596    0.19592    2.42981
 1264.52906   79.21602    0.16570    2.41891
 1265.53106   57.25001    0.26575    2.31245
 1266.53307   73.11068    0.31303    2.25467
 1267.53507   66.14225    0.27575    2.28985
 1268.53707   80.66088    0.18751    2.43547
 1269.53908   73.94299    0.23958    2.33925
 1270.54108   71.18149    0.13553    2.51295
 1271.54309   77.69828    0.32225    2.27765
 1272.54509   55.04210    0.21763    2.37438
 1273.54709   91.93182    0.15856    2.45272
 1274.54910   57.01810    0.31573    2.28192
 1275.55110   49.96928    0.18799    2.46387
 1276.55311   94.81832    0.31925    2.26923
 1277.55511   78.37017    0.21833    2.39113
 1278.55711   55.86956    0.16691    2.43767
 1279.55912   56.81649    0.23161    2.39026
 1280.56112   74.53460    0.22906    2.35265
 1281.56313   89.56255    0.28640    2.32252
 1282.56513   79.52946    0.29877    2.24742
 1283.56713   57.26302    0.32522    2.23791
 1284.56914   88.82612    0.31946    2.26327
 1285.57114   72.55661    0.33004    2.27645
 1286.57315   77.32692    0.22818    2.37477
 1287.57515   68.89776    0.22123    2.38607
 1288.57715   69.38833    0.20336    2.41939
 1289.57916   46.46873    0.25543    2.35257
 1290.58116   67.77695    0.22507    2.37780
 1291.58317   63.64071    0.20255    2.38886
 1292.58517   90.61440    0.19142    2.39012
 1293.58717   90.70553    0.18180    2.44216
 1294.58918   63.23526    0.25821    2.33426
 1295.59118   76.00176    0.24119    2.32558
 1296.59319   78.05135    0.32246    2.24266
 1297.59519   55.13096    0.25893    2.37244
 1298.59719   40.53089    0.25263    2.32694
 1299.59920   53.71093    0.26673    2.31191
 1300.60120   70.20773    0.20554    2.42400
 1301.60321   69.00375    0.28164    2.34944
 1302.60521   65.90028    0.26531    2.34447
 1303.60721   99.46177    0.23383    2.39046
 1304.60922   74.09266    0.26828    2.30997
 1305.61122   81.74897    0.25449    2.35361
 1306.61323   91.15736    0.31155    2.29271
 1307.61523   68.03346    0.20762    2.36490
 1308.61723   98.29464    0.18825    2.40709
 1309.61924   76.62768    0.21198    2.36253
 1310.62124   65.18401    0.20551    2.39615
 1311.62325   81.19160    0.24194    2.41042
 1312.62525   69.18765    0.20136    2.43821
 1313.62725   78.60268    0.27389    2.30198
 1314.62926   53.35692    0.16056    2.47184
 1315.63126   93.19511    0.29413    2.28205
 1316.63327  114.21476    0.26902    2.32102
 1317.63527   69.30701    0.28072    2.30318
 1318.63727   82.20737    0.19557    2.40542
 1319.63928   65.13249    0.25610    2.37652
 1320.64128   59.01170    0.27359    2.30701
 1321.64329   61.88274    0.18279    2.38401
 1322.64529   96.63807    0.31829    2.23327
 1323.64729  100.46368    0.21684    2.39169
 1324.64930   84.06875    0.32819    2.27106
 1325.65130   77.75464    0.27221    2.30742
 1326.65331   80.50011    0.21736    2.41260
 1327.65531   56.99118    0.25628    2.33337
 1328.65731   85.21268    0.26525    2.31380
 1329.65932   58.97985    0.33643    2.21875
 1330.66132   90.39321    0.23018    2.35559
 1331.66333   63.04752    0.24116    2.36582
 1332.66533   86.89455    0.24581    2.34424
 1333.66733   97.44278    0.25205    2.36982
 1334.66934   80.20773    0.24374    2.36880
 1335.67134   75.05066    0.29892    2.29277
 1336.67335   66.42433    0.26570    2.32430
 1337.67535   81.66209    0.29460    2.31613
 1338.67735   74.81368    0.24012    2.34696
 1339.67936   97.93222    0.33824    2.22768
 1340.68136   85.30389    0.15096    2.44836
 1341.68337  118.50424    0.23152    2.39982
 1342.68537   63.37955    0.25386    2.30149
 1343.68737   76.15974    0.34336    2.27063
 1344.68938   72.80989    0.25153    2.36433
 1345.69138   88.57453    0.25619    2.32788
 1346.69339   83.84538    0.25112    2.34343
 1347.69539   76.21454    0.18990    2.42081
 1348.69739   92.71912    0.24707    2.35050
 1349.69940  103.72318    0.19569    2.44357
 1350.70140   44.13799    0.20550    2.37283
 1351.70341   91.11077    0.24998    2.37387
 1352.70541   45.65497    0.24570    2.36041
 1353.70741   68.68152    0.24164    2.36089
 1354.70942   77.80307    0.27797    2.36541
 1355.71142  110.87110    0.28171    2.30007
