~Version ---------------------------------------------------
VERS.   2.0 : CWLS log ASCII Standard -VERSION 2.0
WRAP.    NO : One line per depth step
DLM . SPACE : Column Data Section Delimiter
~Well ------------------------------------------------------
STRT.M 1000.00000 : START DEPTH
STOP.M 1500.00000 : STOP DEPTH
STEP.M    1.00200 : STEP
NULL.     -999.25 : NULL VALUE
COMP.             : COMPANY
WELL.    WELL-003 : WELL
FLD .             : FIELD
LOC .             : LOCATION
PROV.             : PROVINCE
CNTY.             : COUNTY
STAT.             : STATE
CTRY.             : COUNTRY
SRVC.             : SERVICE COMPANY
DATE.             : DATE
UWI .             : UNIQUE WELL ID
API .             : API NUMBER
~Curve Information -----------------------------------------
DEPT      .M     : 
G.R.      .API   : Gamma Ray
NPHI_V1   .V/V   : Neutron Porosity
RHOB_FINAL.G/C3  : Bulk Density
~Params ----------------------------------------------------
~Other -----------------------------------------------------
~ASCII -----------------------------------------------------
# ...
 1356.71343   85.58615    0.24404    2.34691
 1357.71543   57.64230    0.24208    2.36212
 1358.71743   71.09473    0.26190    2.32318
 1359.71944   84.55525    0.25322    2.35603
 1360.72144   73.04246    0.27299    2.30792
 1361.72345   70.27878    0.27534    2.33003
 1362.72545   57.17890    0.32728    2.24592
 1363.72745   99.82713    0.24535    2.35401
 1364.72946   64.96591    0.26844    2.33724
 1365.73146   85.19359    0.33681    2.21919
 1366.73347   67.97773    0.23749    2.37841
 1367.73547   59.39747    0.31963    2.26514
 1368.73747   61.89150    0.20315    2.42737
 1369.73948   82.41613    0.32992    2.20823
 1370.74148   66.13099    0.20628    2.39894
 1371.74349   82.66409    0.30799    2.27668
 1372.74549   64.63401    0.20869    2.39967
 1373.74749   50.74792    0.24861    2.37154
 1374.74950   87.86056    0.27779    2.29576
 1375.75150   73.86891    0.18429    2.42036
 1376.75351   80.33655    0.18109    2.43579
 1377.75551   68.33954    0.35216    2.22986
 1378.75752   71.85771    0.32750    2.26240
 1379.75952   62.56881    0.27309    2.31232
 1380.76152   66.95297    0.25568    2.33022
 1381.76353   74.17225    0.25846    2.33764
 1382.76553   74.67700    0.29134    2.28033
 1383.76754   82.48551    0.27508    2.35394
 1384.76954   97.90420    0.33866    2.21512
 1385.77154   56.63878    0.29379    2.29246
 1386.77355   53.77906    0.25894    2.33692
 1387.77555   81.91596    0.26281    2.34159
 1388.77756   54.39232    0.31966    2.26748
 1389.77956   94.56334    0.22685    2.39673
 1390.78156   65.63038    0.30192    2.29611
 1391.78357  100.06566    0.23398    2.38348
 1392.78557   65.68462    0.26557    2.32075
 1393.78758   69.22052    0.20227    2.41770
 1394.78958   19.15211    0.30228    2.27139
 1395.79158   66.50219    0.24326    2.35896
 1396.79359   63.33633    0.23342    2.35528
 1397.79559   89.36376    0.23580    2.37537
 1398.79760   74.81931    0.22685    2.37420
 1399.79960   66.95449    0.27318    2.30625
 1400.80160   87.23881    0.21535    2.41699
 1401.80361   73.12054    0.25194    2.34668
 1402.80561   75.16976    0.29551    2.31978
 1403.80762   60.05124    0.22772    2.40903
 1404.80962   70.25055    0.34030    2.27821
 1405.81162   75.48810    0.23832    2.33841
 1406.81363   60.62344    0.28573    2.31883
 1407.81563   30.19204    0.23998    2.34552
 1408.81764   69.26612    0.18533    2.45588
 1409.81964   72.09757    0.29939    2.27808
 1410.82164   39.11348    0.26555    2.34630
 1411.82365   77.33243    0.27379    2.32649
 1412.82565   53.89643    0.26735    2.33961
 1413.82766   34.31506    0.30371    2.29871
 1414.82966   85.69721    0.27429    2.33847
 1415.83166   45.65304    0.22240    2.38029
 1416.83367   56.39856    0.32174    2.26793
 1417.83567   65.07417    0.27082    2.32463
 1418.83768   65.65725    0.19349    2.43984
 1419.83968   30.91634    0.24048    2.36735
 1420.84168   57.20974    0.24700    2.33839
 1421.84369   50.83355    0.31558    2.27144
 1422.84569   52.82671    0.13731    2.48713
 1423.84770   60.24631    0.24422    2.35301
 1424.84970   47.38590    0.22034    2.32834
 1425.85170   76.11258    0.30784    2.26520
 1426.85371   38.81302    0.24156    2.32145
 1427.85571   73.12720    0.14728    2.50612
 1428.85772   56.67883    0.26725    2.31052
 1429.85972   81.29179    0.22045    2.39841
 1430.86172   47.95551    0.30006    2.32152
 1431.86373   64.54087    0.17870    2.41604
 1432.86573   36.93338    0.28430    2.31913
 1433.86774   53.82267    0.31582    2.27259
 1434.86974   66.97324    0.27055    2.30337
 1435.87174   17.18537    0.22727    2.38570
 1436.87375   55.68170    0.24577    2.34904
 1437.87575   17.33184    0.33285    2.26251
 1438.87776   42.16485    0.30756    2.28173
 1439.87976   41.61195    0.22315    2.36050
 1440.88176   36.14413    0.31802    2.23653
 1441.88377   27.86765    0.27960    2.36567
 1442.88577   61.63955    0.25239    2.35216
 1443.88778   47.41768    0.22543    2.38420
 1444.88978   39.50562    0.31679    2.27937
 1445.89178   58.21544    0.21535    2.39217
 1446.89379   29.49447    0.25987    2.34068
 1447.89579   40.52613    0.24241    2.33318
 1448.89780   46.89426    0.22179    2.39691
 1449.89980   42.02208    0.25877    2.33807
 1450.90180   45.73793    0.32002    2.26908
 1451.90381   37.79018    0.23771    2.34077
 1452.90581   15.36528    0.21956    2.39357
 1453.90782   47.27130    0.25282    2.34499
 1454.90982   18.17601    0.32502    2.23712
 1455.91182   39.99282    0.28457    2.33197
 1456.91383   65.31347    0.23948    2.34984
 1457.91583   40.89752    0.33266    2.19930
 1458.91784   59.44760    0.26449    2.32922
 1459.91984   38.35642    0.28237    2.33380
 1460.92184   17.26886    0.23740    2.34531
 1461.92385    2.65892    0.17392    2.44106
 1462.92585   29.56024    0.28331    2.31461
 1463.92786   45.58186    0.11612    2.53390
 1464.92986   42.67238    0.26576    2.33749
 1465.93186   50.01617    0.33129    2.26387
 1466.93387   30.87852    0.33811    2.24376
 1467.93587   25.43122    0.15959    2.46496
 1468.93788   56.46119    0.21319    2.38634
 1469.93988   15.55375    0.27608    2.28590
 1470.94188   44.24180    0.14482    2.46380
 1471.94389   59.07494    0.27256    2.31302
 1472.94589   39.49180    0.33553    2.25313
 1473.94790   39.47322    0.31421    2.25748
 1474.94990   20.14699    0.31735    2.26439
 1475.95190   42.90354    0.20848    2.40505
 1476.95391   11.64649    0.23031    2.37815
 1477.95591   19.87125    0.23536    2.37932
 1478.95792   26.65518    0.24398    2.35869
 1479.95992   31.59481    0.28670    2.29804
 1480.96192   41.51215    0.31002    2.28374
 1481.96393   42.21058    0.25673    2.32162
 1482.96593   44.69309    0.32667    2.27095
 1483.96794   10.51358    0.21188    2.37659
 1484.96994   29.27038    0.25312    2.33576
 1485.97194   53.03668    0.24152    2.34288
 1486.97395   38.33039    0.23863    2.37188
 1487.97595   40.30670    0.26585    2.32361
 1488.97796   39.21905    0.18708    2.43599
 1489.97996   27.64427    0.25621    2.35539
 1490.98196   35.42088    0.26598    2.32295
 1491.98397   67.24608    0.30970    2.28792
 1492.98597   55.84687    0.19259    2.42472
 1493.98798   12.87830    0.30862    2.31260
 1494.98998   29.41435    0.20774    2.41228
 1495.99198   69.29677    0.23089    2.36826
 1496.99399   45.00232    0.22302    2.36652
 1497.99599   29.75079    0.26130    2.29171
 1498.99800   57.82473    0.24825    2.36047
 1500.00000   50.90797    0.20688    2.38576
